ID;Название;Тип постройки;Дата основания;Архитектор;Статус;Современный адрес;Краткое описание;Посвящение;lat;lon
32052;Часовня Георгия Победоносца на мемориале Партизанская Слава;часовня;2016;2016: Бухаев В. Б.;действ.;"Ленинградская обл., Лужский р-н, 139-й км автодороги Р-23 ""Псков""";"Кирпичная входная часовня построена на мемориале ""Партизанская Слава"" в 2016 на средства семьи благотворителя О. С. Коваля. Четверик с шатровым завершением увенчан главкой. Освящена 14 сент. 2016.";Георгия Победоносца;58.788111;29.882255
28766;"Часовня Александра Свирского на 254-м км автодороги Р-21 ""Кола""";часовня;2006;нет данных;действ.;"Ленинградская обл., Лодейнопольский р-н, 254-й км автодороги Р-21 ""Кола""";"Высокий часовенный столп, воздвигнутый на автотрассе Е-105 (Р-21) ""Кола"" в год 500-летия Александро-Свирского монастыря.";Александра Свирского;60.81608;33.33552
20654;Церковь Бориса и Глеба в Агалатово;церковь;1999;1999-2001: Кожин Д. Ю.;действ.;Ленинградская обл., Всеволожский р-н, пос. Агалатово;Деревянная церковь в поселке у военного городка, сооруженная в 1999-2001. Четверик, увенчанный крестчатой бочкой с главкой, с пониженными боковыми прирубами, алтарем и трапезной, также покрытыми бочками, с небольшой звонницей над крыльцом.;Бориса и Глеба;60.214262;30.30075
17492;Скит Андрея Первозванного на Агафоновом Лугу;монастырь;1998;: Зайцев А. П. (монастырский корпус(корпуса));действ.;Ленинградская обл., Всеволожский р-н, Колтушская вол., вблизи д. Коркино, массив Генетика на Агафоновом лугу;Скит Александро-Невской лавры, строящийся с 1998 в урочище, у издавна почитаемого валуна, по инициативе В. М. Елгина (в иночестве - монаха Серафима), в 1990-х зарегистрировавшего тут фермерское хозяйство. Сооружены два деревянных храма, келейные корпуса, колокольня (2005). Имеются планы строительства каменного собора. Братия немногочисленна.;;59.938585;30.76733
17494;Церковь Евгении Мученицы в скиту Андрея Первозванного;церковь;2011;2011: Зайцев А. П.;действ.;Ленинградская обл., Всеволожский р-н, Колтушская вол., вблизи д. Коркино, массив Генетика на Агафоновом лугу;Небольшая деревянная церковь, построенная в 2011 на средства И. Н. Бусырёва. Четверик, завершенный низким шатром, с врезанной в него крестчатой бочкой, с одновсходным крыльцом.;Андрея Первозванного;59.938741;30.767292
17493;Церковь Зосимы и Савватия Соловецких в скиту Андрея Первозванного;церковь;1999;;действ.;Ленинградская обл., Всеволожский р-н, Колтушская вол., вблизи д. Коркино, массив Генетика на Агафоновом лугу;Небольшая деревянная церковь, построенная в 1999-2003 попечением В. М. Елгина. Четверик, окруженный открытыми галереями, завершенный четырехскатным шатром с врезанными в него щипцами.;"Андрея Первозванного; Зосимы и Савватия Соловецких";59.938735;30.768387
25539;Церковь Василия Великого в Акуловой Горе;церковь;1998;;действ.;Ленинградская обл., Лодейнопольский р-н, д. Акулова Гора;Деревянная одноглавая однопрестольная церковь в духе северного зодчества, клеть под двускатной крышей, с апсидой, с шатровой звонницей над западной частью клети. Крыльцо - с юга. Построена петербургскими художниками Юрием и Ириной Грецкими в 1998-2000. Ими же храм расписан.;Василия Великого;60.487972;33.550983
19274;Часовня Алексия Цесаревича в Алакюля;часовня;;нет данных;действ.;Ленинградская обл., Ломоносовский р-н, д. Алакюля, ул. Родниковая, д. 1;Небольшая деревянная входная часовня. Неравногранный восьмерик, завершённый шатром с крестом. Построена ок. 2000.;Алексия Цесаревича;59.739035;29.92788
8680;Церковь Александра Невского в Александровке;церковь;1790;;действ.;Ленинградская обл., Гатчинский р-н, д. Александровка;Кирпичная церковь построена в 1790-1794 по проекту И. Е. Старова на средства А. Г. Демидова. Капитально перестроена в 1901-1906 архитектором А. А. Степановым в псевдорусском стиле - устроено пятиглавие, колокольня с шатровым верхом. Закрыта в 1936. После войны использовалась под склад ГСМ, в 1950 перенесла пожар, позже разрушены венчания. С сер. 1990-х в дни престольных праздников в церкви совершаются молебны. В 2007 зарегистрирован самостоятельный приход, в колокольне устроена временная церковь, освященная 10 мент. 2011, где по расписанию проводятся молебны.;Александра Невского;59.674203;30.131472
28686;Церковь Михаила Архангела в Гедевичах;церковь;не позже XVI в.;нет данных;действ.;Ленинградская обл., Лодейнопольский р-н, с. Алёховщина, ул. Сторожовская, 7А;Небольшая деревянная церковь, выстроенная в 1730. К квадратному в плане основному объёму, завершённому двумя убывающими глухими восьмериками с главкой, примыкают гранёная апсида и трапезная, соединяющая его с двухъярусной шатровой колокольней, к которой с запада пристроен входной тамбур. Церковь перестала действовать в 1937, внутреннее оформление утрачено. Открыта для богослужений в 1990, за несколько лет восстановлена.;Михаила Архангела;60.413432;33.851938
21361;Церковь Троицы Живоначальной в Марьино;церковь;1788;;сохр.;Ленинградская обл., Тосненский р-н, д. Андрианово;Кирпичная усадебная церковь в стиле неоготики, построенная в 1831 на средства помещицы графини С. В. Строгановой. Прямоугольная в плане постройка, с колокольней над притвором и восьмигранным куполом над центральным объемом, окруженными шпилями. Закрыта в 1936. В настоящее время заброшена, своды основного объема рухнули.;Троицы Живоначальной;59.418388;30.899155
20139;Церковь Иоанна Богослова в Аннино;церковь;1997;нет данных;действ.;Ленинградская обл., Ломоносовский р-н, пос. Аннино, ул. Садовая, 4А;Церковь устроена в переданном общине кирпичном одноэтажном здании, изначально бывшем детским садом. Перестройка начата в 1997, малое освящение совершено в 2003. Пострадала от пожара в 2008, восстановлена в 2009. Был надстроен световой четверик с четырёхскатным покрытием, пристроена невысокая колокольня с широким шатровым завершением.;Иоанна Богослова;59.773548;30.047927
21837;Церковь Александра Невского в Апраксине;церковь;2013;;действ.;Ленинградская обл., Кировский р-н, пос. Апраксин;"Кирпичная церковь, сооруженная в 2013-2014 при поддержке ОАО ""Газпром"" и освященная 25.10.2014. Сооружена в духе образцовых проектов русско-византийского стиля. Восьмигранный основной объем увенчан малым восьмериком с шатровым куполом, к нему примыкают полукруглый алтарь и притвор.";Александра Невского;59.774279;31.211882
23494;Церковь Покрова Пресвятой Богородицы в Бабино;церковь;не позже XVI в.;нет данных;сохр.;Ленинградская обл., Волховский р-н, д. Бабино;Кирпичная церковь, судя по архитектуре, относящаяся к 1-й пол. XVIII в., по преданию, построенная помещиком Д. Г. Муравьевым. Здание типа восьмерик на четверике с полукруглой апсидой, северным Никольским приделом и асимметрично поставленной невысокой шатровой колокольней у юго-западного угла. Закрыта официально в 1941. Долгие годы пустовала, в аварийном состоянии, в нач. 2010-х предпринята попытка консервации.;"Покрова Пресвятой Богородицы; Николая Чудотворца";60.026341;32.337291
26780;Церковь Успения Пресвятой Богородицы в Барышево;церковь;2014;нет данных;действ.;Ленинградская обл., Выборский р-н, пос. Барышево, ул. Центральная, 18;Каменная пятиглавая однопрестольная церковь в духе барокко - восьмерик на четырёхлепестковом основании, с ярусом звонницы над западным притвором. Заложена 16 сент. 2014, освящена 14 янв. 2016.;Успения Пресвятой Богородицы;60.690256;29.593242
17208;Церковь Михаила Архангела в Бегуницах;церковь;1736;1892-1894: Фиделли В. И. (колокольня);действ.;Ленинградская обл., Волосовский р-н, д. Бегуницы;Небольшая каменная церковь, построенная в 1800-1813 помещиком А. И. Рамбург. Прямоугольная в плане постройка с пятигранным алтарем. Второй престол Александро-Невский. Перестроена в 1870-х, колокольня пристроена в 1892-1894. Закрыта в 1930-х, венчания сломаны, сильно перестроена. В 1996 возвращена верующим, медленно ремонтируется.;"Михаила Архангела; Александра Невского";59.585408;29.321427
17261;Церковь Николая Чудотворца в Белогорке;церковь;1904;1904-1906: Овсянников С. И.;действ.;Ленинградская обл., Гатчинский р-н, д. Белогорка, ул. Институтская, 2;Кирпичная церковь, построенная в 1904-1906 как домовая в усадьбе Е. А. Фоминой при помощи купца Е. А. Елисеева. Базиликальная постройка с богатым декором в псевдорусском стиле, с прямоугольной звонницей над западной частью и главкой над восточной. Закрыта в 1939, венчания сломаны, использовалась как дом культуры. Возвращена верующим в 1993, реставрируется.;Николая Чудотворца;59.34983;30.134602
20082;Часовня Всех Святых Русских в Беседе;часовня;не позже нач. ХХ в.;нет данных;действ.;Ленинградская обл., Волосовский р-н, пос. Беседа;Кирпичный одноглавый часовенный столб, сооружённый усилиями А. А. Дмитриева на Святой горке, рядом со старинными крестами, на месте старого часовенного столба, разобранного в 1960-х. Освящён 17 дек. 2008.;Всех Святых Русских;59.359936;28.973672
33434;Церковь Покрова Пресвятой Богородицы в Бокситогорске;церковь;1996;2002-2007: Семенов П. И.;действ.;Ленинградская обл., Бокситогорский р-н, г. Бокситогорск, ул. Спортивная;Православнай приход создан в 1996, богослужения проводились в бывшем здании детского сада. Деревянная однопрестольная церковь построена в 2002-2007 по проекту арх. П. И. Семёнова. Освящена 31 марта 2007. Благоустройство храма продолжалось до 2010. Выстроен бревенчатый четверик под двухскатной крышей с двухъярусным куполом с главой на восьмерике, с прирубом граненого алтаря, завершенного бочкой, с колокольней над притвором.;Покрова Пресвятой Богородицы;59.468422;33.844414
33435;Часовня Антония Дымского в Бокситогорске;часовня;2024;нет данных;действ.;Ленинградская обл., Бокситогорский р-н, г. Бокситогорск, ул. Комсомольская, 22А;Часовня в каменном здании пекарни Антониево-Дымского монастыря устроена в 2024. Внешне не выделена. Приписана к монастырю.;Антония Дымского;59.476624;33.844212
20017;Церковь Успения Пресвятой Богородицы в Большой Вруде;церковь;1726;;действ.;Ленинградская обл., Волосовский р-н, д. Большая Вруда;Небольшая каменная однокупольная церковь в стиле классицизма, сооруженная в 1823-1840 при помощи графа В. Ф. Адлерберга. Двухъярусная колокольня пристроена в 1852, тогда же венчания переделаны в русско-византийском стиле. Закрыта в 1938, в годы войны вновь открыта и снова закрыта в 1961. В 2000-х возвращена верующим, венчания восстановлены в формах классицизма.;Успения Пресвятой Богородицы;59.403129;29.248898
16905;Церковь Всех Святых в Большой Ижоре;церковь;2006;нет данных;действ.;Ленинградская обл., Ломоносовский р-н, пос. Большая Ижора;Кирпичная церковь простой архитектуры, построенная в 2006-2008 на поселковом кладбище, около братской могилы. Одноглавый четверик с пощипцовыми завершениями фасадов, с алтарем и притвором. Службы поочередно с Никольским храмом.;Всех Святых;59.942899;29.566512
16906;Церковь Николая Чудотворца в Большой Ижоре;церковь;1868;;действ.;Ленинградская обл., Ломоносовский р-н, пос. Большая Ижора, ул. Октябрьская, 3А;Деревянная однопрестольная церковь построена в 1876-1877. Эклектичная постройка, завершавшаяся четырехскатным шатром, с шатровой колокольней. Закрыта в 1932, в 1939 разобрана. Община воссоздана в 2003, службы шли во временном помещении. В 2008 принято решение о воссоздании храма на старом месте. Выстроена деревянная однопрестольная церковь, четверик под двухскатной крышей (скаты в направлении запад-восток), с прямоугольной апсидой и массивной двухъярусной шатровой колокольней в связи. Освящена 16 июля 2022. Службы в летнее время.;Николая Чудотворца;;
18948;Церковь Сергия Радонежского в Большой Ящере;церковь;1871;1871-1872: Карпов Г. И.;сохр.;Ленинградская обл., Лужский р-н, д. Большая Ящера;Кирпичный храм в формах эклектики с шатровыми куполом и колокольней, сооруженный в 1871-1872 на средства И. П. Лесникова. Закрыт в 1930-х. Пустует, купол и колокольня сломаны, своды рухнули.;Сергия Радонежского;59.159314;29.91568
17501;Часовня Иконы Божией Матери Казанская в Большево;часовня;;нет данных;действ.;Ленинградская обл., Гатчинский р-н, д. Большево;"Деревянная часовня, обшитая тесом, построенная в память 17.10.1888. Пример ""ропетовской"" архитектуры, одноглавый четверик с звонницей над притвором. Была приписана к церкви в Орлино. В 1990-х отремонтирована.";Иконы Божией Матери Казанская;59.32793;30.03907
21022;Церковь Иконы Божией Матери Казанская в Больших Полях;церковь;1954;нет данных;действ.;Ленинградская обл., Сланцевский р-н, д. Большие Поля;Деревянная церковь, первоначально построенная в 1898 в селе Низы. Одноглавый четверик под двускатной кровлей с трапезной и пятигранным алтарем, обшитый тесом. В 1954 в связи с затоплением Низов перевезена в Большие Поля, с момента перевозки не закрывалась.;Иконы Божией Матери Казанская;59.15547;28.077289
19329;Часовня Иконы Божией Матери Почаевская в Большом Заречье;часовня;;нет данных;сохр.;Ленинградская обл., Волосовский р-н, ур. Большое Заречье (2 км В д. Глумицы);Небольшая деревянная четверогранная часовня под низкой восьмискатной кровлей, строящаяся на сельском кладбище.;Иконы Божией Матери Почаевская;59.38332;29.78089
19713;Церковь Николая Чудотворца в Большом Кузёмкино;церковь;1995;нет данных;действ.;Ленинградская обл., Кингисеппский р-н, д. Большое Куземкино;Небольшая деревянная церковь простой архитектуры, построенная в 1995-2000.;Николая Чудотворца;59.583004;28.182099
17486;Церковь Николая Чудотворца и Арсения Коневского в Большом Стремление;церковь;1913;нет данных;сохр.;Ленинградская обл., Кингисеппский р-н, д. Большое Стремление;Небольшая деревянная церковь, обшитая тесом, сооружённая в 1913 путем реконструкции прежде бывшей часовни в дальней деревне сойкинского прихода. Прямоугольная постройка под двускатной кровлей с главкой с небольшими алтарём и притвором. Закрыта в 1940, пустует.;"Николая Чудотворца; Арсения Коневского";59.746006;28.665643
20776;Церковь Иконы Божией Матери Умиление в Борисовой Гриве;церковь;2004;нет данных;действ.;Ленинградская обл., Всеволожский р-н, д. Борисова Грива, Ириновское ш., д. 43А;Крупная кирпичная часовня простой архитектуры, освящённая в 2004. Четверик с пятигранной апсидой, завершённый низким деревянным барабаном с шатровой кровлей. С кон. 2000-х проводятся литургии.;Иконы Божией Матери Умиление;60.095117;30.97321
24756;Часовня Серафима Саровского в Борисово;часовня;нач. 2000-х;нет данных;действ.;Ленинградская обл., Приозерский р-н, д. Борисово;Небольшая деревянная часовня, сооружённая в нач. 2000-х. Квадратный в плане сруб, завершённый шатром, с притвором и алтарным прирубом. Приписана к церкви в Раздолье.;Серафима Саровского;60.601539;30.017913
20855;Церковь Иконы Божией Матери Августовская в Буграх;церковь;2009;нет данных;действ.;Ленинградская обл., Всеволожский р-н, пос. Бугры, ул. Шоссейная, 2;Деревянная церковь простой архитектуры, сооружённая в 2009-2010 в поселке при военной части. Обшитая вагонкой прямоугольная постройка с небольшой луковичной главкой.;Иконы Божией Матери Августовская;60.067529;30.39152
15171;Церковь Успения Пресвятой Богородицы в Будогоще;церковь;2008;нет данных;действ.;Ленинградская обл., Киришский  р-н, пос. Будогощь;;Успения Пресвятой Богородицы;59.285427;32.448281
20736;"Церковь Покрова Пресвятой Богородицы в КП ""Гатчинские поместья""";церковь;2012;нет данных;действ.;"Ленинградская обл., Гатчинский р-н, д. Вайя, КП ""Гатчинские поместья""";"Небольшая церковь из пеноблоков, сооружаемая компанией ""ИБС Дивелэпэс"" в коттеджном поселке ""Гатчинские поместья"". Восьмерик, завершенный шатром с главкой, с прямоугольными алтарем и притвором. Заложена в 2012, достраивается. Приписана к храму Иоанна Воина в Малом Верево.";Покрова Пресвятой Богородицы;59.599419;30.161926
20016;Часовня в Ванакюля;часовня;2000-е;нет данных;действ.;Ленинградская обл., Кингисеппский р-н, д. Ванакюля;Небольшая деревянная одноглавая часовня с открытым крыльцом, сооруженная в 2000-х.;;59.514229;28.185994
3820;Церковь Веры, Надежды, Любови и Софии в Вартемягах;церковь;;;действ.;Ленинградская обл., Всеволожский р-н, пос. Вартемяги;Каменная церковь в стиле классицизма. Первоначальное здание построено по проекту арх. Д. И. Висконти в 1825-1840. В 1870 расширена по проекту арх. А. И. Монигетти. В 1930-х закрыта и использовалась как клуб. В 1990-х возвращена верующим. Вновь освящена 26 июля 2022.;Веры, Надежды, Любови и Софии;60.172986;30.336518
7620;Церковь Андрея Первозванного на Вуоксе;церковь;;1999-2000: Ротинов А. Н. – строительство по собств. проекту;действ.;Ленинградская обл., Приозерский р-н, пос. Васильево;Небольшая деревянная шатровая церковь, восьмерик от земли, построена по проекту архитектора А. Н. Ротинова. Приписана к Коневской церкви в пос. Саперное.;Андрея Первозванного;60.876961;29.825059
30250;Часовня Владимира равноапостольного в Васильевской;часовня;нач. 1970-х;нет данных;действ.;Ленинградская обл., Подпорожский р-н, д. Васильевская;Деревянная часовня выстроена в 2005 вместо молитвенного дома (обустроенного в старом амбаре в нач. 1970-х) на средства В. А. Кипрушкина и А. Е. Финченко. Одноглавая прямоугольная в плане часовня под двухскатной кровлей на столбах.;Владимира равноапостольного;60.407688;35.064342
24749;Часовня Троицы Живоначальной в Васкелово;часовня;2013;нет данных;действ.;Ленинградская обл., Всеволожский р-н, д. Васкелово, ул. Коробицына;Восьмигранная в плане часовня под низкой шатровой кровлей. Первая постройка комплекса предполагаемой церкви, сооружённая в 2013 из ДВП-плит на каркасе.;Троицы Живоначальной;60.371244;30.349992
17178;Церковь Введения Пресвятой Богородицы во Храм в Введенском;церковь;1845;нет данных;действ.;Ленинградская обл., Гатчинский р-н, д. Введенское;Деревянная церковь, обшитая тесом, была построена в 1845. Представляла собой здание под двускатной кровлей с двухъярусно шатровой колокольней. Закрыта в 1941, к 1990-м заброшена, в 1994 сгорела. В 2006-2007 на ее месте выстроен новый небольшой храм с шатровым завершением. Опекается клиром Петропавловской церкви в Вырице.;Введения Пресвятой Богородицы во Храм;59.372456;30.442944
23545;Церковь Николая Чудотворца в Вероле;церковь;ок. 1750;1828-1838: Висконти Д. И.;сохр.;Ленинградская обл., Кировский р-н, д. Верола;Небольшая кирпичная церковь стиля ампир, построенная в 1828-1838 на средства коменданта Петропавловской крепости генерал-лейтенанта М. К. Крыжановского. Ротондальный храм, в прошлом перекрытый куполом, с симметричными притвором и алтарем, над притвором поставлена звонница. Закрыта в кон. 1930-х. Пустует, постепенно разрушается, купол обрушился.;Николая Чудотворца;60.027662;31.725849
15153;Церковь Иконы Божией Матери Владимирская в Верхних Кумёнах;церковь;1710-е;нет данных;сохр.;Кировская обл., Куменский р-н, с. Верхкумены (нежил.);Каменная двухпрестольная церковь с колокольней (1783), построена на средства прихожан вместо прежней деревянной, пришедшей в ветхость. В 1776 освящен тёплый Предтеченский придел.;"Иконы Божией Матери Владимирская; Иоанна Предтечи";58.0;49.828856
29987;Церковь Василия Великого в Винницах;церковь;1866;нет данных;сохр.;Ленинградская обл., Подпорожский р-н, с. Винницы, ул. Советская, 35;"Деревянная на каменном фундаменте обшитая тёсом церковь заложена в 1867, единственный престол освящён 7 марта 1871. В 1873 добавились приделы Димитрия Солунского (правый; устроен на средства купца Д. Шлыкова, освящён 17 марта) и Николая Чудотворца (левый; на средства купца Е. О. Афонькина, освящён 18 марта). Прямоугольное в плане пятиглавое здание имело оригинальную расстановку четырёх малых глав по диагоналям восьмискатной кровли, ещё одна главка была над алтарём. Закрыта в 1935, лишилась венчаний. Приход восстановлен в 1991, но храм пока не отреставрирован.";"Василия Великого; Николая Чудотворца; Димитрия Солунского";60.628074;34.781742
15321;Церковь Иконы Божией Матери Смоленская в Винницах;церковь;нач. 2000-х;нет данных;действ.;Ленинградская обл., Подпорожский р-н, с. Винницы, ул. Советская, 35А;Небольшая деревянная церковь, завершённая клетской кровлей с каскадным покрытием. Построена в сер. 2000-х в связи с невозможностью быстрого ремонта старого храма.;Иконы Божией Матери Смоленская;60.627841;34.782246
29986;Церковь Рождества Пресвятой Богородицы в Винницах;церковь;не позже XV в.;нет данных;сохр.;Ленинградская обл., Подпорожский р-н, с. Винницы, ул. Советская, 35Б;Холодная деревянная на каменном фундаменте церковь, построенная в 1791 и перестроенная в 1881 на средства И. И. Корнышева. Основной объём обшитого тёсом здания представлял собой четверик с поставленными на него двумя убывающими восьмериками, завершёнными главкой. К западной стороне трапезной примыкала высокая трёхъярусная восьмигранная колокольня. Имелся Ильинский придел. Закрыта в 1938, сначала лишилась колокольни, а позже и восьмериков, использовалась под склад. Сейчас состояние здания тяжёлое, планируется реставрация.;"Рождества Пресвятой Богородицы; Илии Пророка";60.627604;34.782632
10249;Часовня Серафима Саровского в Винницах;часовня;;нет данных;действ.;Ленинградская обл., Подпорожский р-н, с. Винницы;Небольшая деревянная часовня на кладбище, построенная по инициативе и силами местных жителей. На высокой двускатной крыше здания поставлена звонница под колпаком.;Серафима Саровского;60.635812;34.777919
17498;Часовня Николая Чудотворца в Витино;часовня;;нет данных;действ.;Ленинградская обл., Ломоносовский р-н, д. Витино;Кирпичная часовня, построенная в 1879 в память 04.04.1866 (спасения Александра II от покушения Каракозова) волостным старостой Г. Ершовым. Была приписана к церкви в Дятлицах. Кубическая постройка в псевдорусском стиле с шатровым завершением. В нач. 2010-х возвращена верующим, ремонтируется.;Николая Чудотворца;59.653664;29.705926
17205;Церковь Николая Чудотворца в Воейково;церковь;2003;нет данных;действ.;Ленинградская обл., Всеволожский р-н, пос. Воейково;Приход создан в 2003 в поселке при НИИ дистанционного зондирования атмосферы, опекается клиром Череменецкого монастыря. Богослужения проводятся в приспособленном деревянном здании, с 2012 строится отдельный деревянный храм с шатровым завершением.;Николая Чудотворца;59.951225;30.707844
30212;Церковь Вознесения Господня в Вознесенье (новая);церковь;;нет данных;действ.;Ленинградская обл., Подпорожский р-н, пос. Вознесенье, ул. Пионерская, 25;;Вознесения Господня;61.012257;35.479732
30213;Часовня в Вознесенье;часовня;2016;нет данных;действ.;Ленинградская обл., Подпорожский р-н, пос. Вознесенье, Свирская наб;Деревянная одноглавая часовня у пристани построена в 2016. В 2021 выполнена реконструкция, достроен алтарь, произведено утепление. Часовня приписана к Вознесенской церкви в Вознесенье.;;61.013374;35.485743
30214;Часовня Иконы Божией Матери В скорбех и печалех Утешение при Доме-интернате для престарелых и инвалидов;часовня;;нет данных;действ.;Ленинградская обл., Подпорожский р-н, пос. Вознесенье, ул. Онежской флотилии, 38;;Иконы Божией Матери В скорбех и печалех Утешение;61.01281;35.465748
18413;Церковь Иконы Божией Матери Казанская в Войскорово;церковь;2007;2007-2009: Крюковских Н. А. – строительство по собств. проекту;действ.;Ленинградская обл., Тосненский р-н, пос. Войскорово;Небольшая церковь каркасной конструкции, обшитая железом. Четверик под четырехскатной кровлей с притвором. Построена в 2007-2009 попечением художника Н. А. Крюковских.;Иконы Божией Матери Казанская;59.688886;30.56177
16957;Церковь Рождества Пресвятой Богородицы в Войтолово;церковь;2003;нет данных;действ.;Ленинградская обл., Кировский р-н, д. Войтолово;Небольшая деревянная церковь, построенная в 2003-2004 на средства благотворительницы Л. Г. Золотых. Прямоугольная постройка под двускатной кровлей с главкой и шатровой звонницей. Опекается клиром Крестовоздвиженского казачьего собора в Санкт-Петербурге.;Рождества Пресвятой Богородицы;59.71092;30.986858
19117;Церковь Ирины Великомученицы в Волгово;церковь;1809;нет данных;действ.;Ленинградская обл., Волосовский р-н, д. Волгово;Кирпичная церковь, построенная в 1809-1817 как домовый храм при усадьбе помещиком Ф. А. Голубцовым. Однокупольная постройка стиля ампир с равновеликими прямоугольными алтарем и притвором. Была приписана к храму в Клопицах, в 1909 (1906 ?) передана русско-финскому православному приходу. Закрыта в 1939. В 1990-х юридически передана верующим, активные восстановительные работы начаты в 2010.;Ирины Великомученицы;59.56022;29.595665
21033;Часовня Ирины Великомученицы (?) в Волгово;часовня;;нет данных;действ.;Ленинградская обл., Волосовский р-н, д. Волгово;"Кирпичная кубическая ""входная"" часовня, сооруженная в 1812. В годы советской власти использовалась в хозяйственных целях, позже пустовала, вновь освящена в 2004.";Ирины Великомученицы;59.561169;29.594172
20083;Церковь Иконы Божией Матери Смоленская в Волне;церковь;;нач. ХХ в.: Никонов Н. Н.;сохр.;Ленинградская обл., Волосовский р-н, д. Волна;Небольшая кирпичная церковь в псевдорусском стиле, построенная в нач. ХХ в. (по ряду сведений в 1890) в дальней деревне редкинского прихода. Одноглавый четверик с полукруглым алтарём и притвором, над стеной которого поставлена звонница. Ремонтируется с нач. 2010-х.;Иконы Божией Матери Смоленская;59.192119;29.131403
9127;Часовня Покрова Пресвятой Богородицы в Волнаволоке;часовня;;нет данных;действ.;Ленинградская обл., Подпорожский р-н, д. Волнаволок;Небольшая деревянная часовня, построена на месте сгоревших в 2004 деревянных церквей Василия Великого и Покрова Пресвятой Богородицы.;Покрова Пресвятой Богородицы;61.060962;34.480248
8677;Церковь Александра Невского в Волосово;церковь;1904;нет данных;действ.;Ленинградская обл., Волосовский р-н, г. Волосово, ул. Хрустицкого, 17;Деревянная церковь построена в 1904-1905, освящена в 1905. Представляет собой одноглавый четверик с алтарем и притвором, несложной архитектуры. С 1922 принадлежала обновленцам, не действовала с 1937. Закрыта 11.07.1938, передана под пионерский клуб. Вновь открыта осенью 1941, в период немецкой оккупации. После окончания Великой Отечественной войны не закрывалась. В нач. 1960-х областные власти планировали закрыть церковь, но верующие отстояли ее. Сохранился старинный иконостас, в настоящее время проводится ремонт здания.;Александра Невского;59.443101;29.470589
28964;Собор Андрея Первозванного в Волхове;церковь;2018;2018-2019: Кужаров Н. Г.;действ.;Ленинградская обл., г. Волхов, Кировский просп., 20;"Деревянный рубленый шатровый двухэтажный двухпрестольный храм на каменном фундаменте. Крестообразный в плане, восьмерик на четверике. Каждая ветвь креста завершается системой бочек. В нижней части устроен придел Рождества Иоанна Предтечи, там же располагаются вспомогательные службы. Заложен в 24 мая 2018 по проекту арх. Н. Г. Кужарова, освящён 6 июня 2019. Построен при финансовой поддержке ПАО ""ФосАгро"".";"Андрея Первозванного; Рождества Иоанна Предтечи";59.90905;32.351443
33512;Церковь Георгия Победоносца в Волхове;церковь;не позже 2015;нет данных;действ.;Ленинградская обл., Волховский р-н, г. Волхов, мкрн. Халтурино, ул. Мичурина, 3;Небольшая каменная церковь, четверик под четырёхскатной крышей, завершенной главой, с граненой апсидой и крыльцом, заложена в 2015 близ места, где находилась утраченная в 1941 Петропавловская церковь. В целом выстроена к 2023, богослужения совершаются с 2024.;Георгия Победоносца;59.888634;32.354235
6673;Церковь Илии Пророка в Плеханово;церковь;;;действ.;Ленинградская обл., г. Волхов, мкрн. Плеханово;;Илии Пророка;59.953103;32.336283
6668;Церковь Михаила Архангела в Волхове;церковь;не позже XV в.;нет данных;действ.;Ленинградская обл., Волховский р-н, г. Волхов, Октябрьская наб., 29;Одноглавый кирпичный храм в стиле классицизма с колокольней. Второй престол Екатерининский. Выстроен в 1812-1820. Закрыт в 1938, возвращен верующим в 1994, отреставрирован.;Михаила Архангела;59.911555;32.333929
33514;Часовня Иконы Божией Матери Тихвинская на железнодорожном вокзале станции Волховстрой-1;часовня;2011;нет данных;действ.;Ленинградская обл., Волховский р-н, г. Волхов, Привокзальная пл., 1;Часовня обустроена в здании железнодорожного вокзала в 2011. Приписана к Михаилоархангельской церкви.;Иконы Божией Матери Тихвинская;59.921391;32.300109
14617;Церковь Петра и Павла в Вороново;церковь;1861;нет данных;сохр.;Ленинградская обл., Волховский р-н, д. Вороново;Приход образован в 1865. Деревянная одноглавая однопрестольная церковь с граненой апсидой и колокольней в связи, на кирпичном цоколе, построена в 1866-1873 на средства местных жителей как основной храм прихода. Освящена 9 сент. 1873. Закрыта в 1930-х, венчания сломаны, частично перестроена под клуб. С 1980-х заброшена, разрушается.;Петра и Павла;60.276433;32.637135
8694;Церковь Воскресения Христова в Воскресенском;церковь;1718;1992-2001: Сёмочкин А. А.;действ.;Ленинградская обл., Гатчинский р-н, с. Воскресенское, ул. Центральная, 2Б;Первоначальная деревянная церковь в поместье Ганнибалов построена на кладбище в 1718, разобрана в 1845-1848. В 1845-1848 возведена новая деревянная церковь. После постройки новой церкви из-за ветхости не действовала с 1920, использовалась для отпевания, закрыта в 1937 и передана под клуб колхоза им. Пушкина. После гибели в 1941 новой церкви спасенные иконы и утварь перенесли в старую церковь, где 29 авг. 1941 начались службы. Церковь сгорела 04 нояб. 1964, возможно от поджога. В апр. 1965 Гатчинский райисполком отказал верующим в строительстве нового здания. Ныне существующая деревянная церковь сооружена в 1992-2001. Освящена 8 мая 2016. Нижний крестильный храм в честь Димитрия Донского освящен 1 июня 2017. Интересный пример использования форм современного зодчества в деревянном храмостроении.;"Воскресения Христова; Димитрия Донского";59.469212;30.119019
17403;Часовня Воскресения Христова на Старосуйденском кладбище;часовня;2000-е;нет данных;действ.;Ленинградская обл., Гатчинский р-н, с. Воскресенское;"Кирпичная восьмигранная ""входная"" часовня на кладбище. Сооружена в 2000-х, вероятно, на месте сгоревшей Воскресенской церкви.";Воскресения Христова;;
30833;Церковь Силуана Афонского в Вохоновском Мариинском монастыре;церковь;;2006-2007: Осокин И. Е.;действ.;Ленинградская обл., Гатчинский р-н, д. Вохоново;;Силуана Афонского;59.551675;29.812092
19692;Церковь Силуана Афонского в Вохоново;церковь;2006;нет данных;действ.;Ленинградская обл., Гатчинский р-н, д. Вохоново;Небольшая кирпичная церковь простой архитектуры, построенная в 2006-2007. Одноглавый четверик с прямоугольными алтарем и притвором.;Силуана Афонского;59.551704;29.812008
19693;Церковь Успения Пресвятой Богородицы в Вохоново;церковь;2006;2006-2010: Шаталин Н.;действ.;Ленинградская обл., Гатчинский р-н, д. Вохоново;Кирпичная церковь в русском стиле, сооруженная в 2006-2010 на месте разрушенного Вохоновского монастыря, намеченного к восстановлению. Одноглавый четверик с притвором, в верхней части которого устроена звонница, и алтарем.;Успения Пресвятой Богородицы;59.55211;29.81309
20249;Церковь Иоанна Кронштадтского в Всеволожске;церковь;2001;нет данных;действ.;Ленинградская обл., г. Всеволожск, просп. Тургенева;Небольшая деревянная церковь простой архитектуры, обшитая тесом. Одноглавый четверик с алтарем и притвором. Сооружена в 2001 в реабилитационном центре для наркозависимых. Приписана к храму Спаса на Конюшенной.;Иоанна Кронштадтского;60.004556;30.712395
16792;Церковь Константина и Елены во Всеволожске;церковь;нач. 1990-х;нет данных;действ.;Ленинградская обл., г. Всеволожск, Христиновский пр., 29 (ст. Бернгардовка);Однопрестольная деревянная рубленная церковь обшитая тёсом, перестроена из бывшей часовни, устроенной на ст. Бернгардовка в 1990-х. Первоначально была приписана к Троицкой церкви во Всеволожске, ныне образован самостоятельный приход.;Константина и Елены;60.008716;30.607223
24752;Церковь Михаила Архангела в Всеволожске;церковь;1995;2012-2014: Зайцев А. П.;действ.;Ленинградская обл., Всеволожский р-н, г. Всеволожск, Колтушское ш., 20;Приход при Всеволожской ЦРБ создан в 1995, в 1996 освящён домовый храм. Особая деревянная церковь сооружена в 2012-2013 попечением главврача К. В. Шипачева, освящена 19 дек. 2014. Четверик, перекрытый крестчатой бочкой под шатром, с отдельно стоящей колокольней.;Михаила Архангела;60.036887;30.631957
24751;Церковь Серафима Саровского на Мельничном ручье;церковь;2015;нет данных;действ.;Ленинградская обл., Всеволожский р-н, г. Всеволожск, просп. Грибоедова, 46;Небольшая деревянная церковь простой архитектуры, сооружённая в 2015 попечением предпринимателя В. Л. Ковалевского. Четверик, завершённый малым восьмериком, со звонницей над притвором.;Серафима Саровского;60.009468;30.684082
17112;Церковь Спаса Нерукотворного Образа на Дороге Жизни;церковь;1899;нет данных;действ.;Ленинградская обл., Всеволожский р-н, г. Всеволожск, ул. Шишканя, 11А;Кирпичная церковь, сооруженная в 1889-1901 княгиней Е. В. Всеволожской как храм-усыпальница, первоначально приписанный к церкви в Ириновке. Восьмигранная в плане постройка под низкой шатровой кровлей. В 1931 закрыта, с 1960-х заброшена. В 1989 возвращена верующим, отреставрирована, в крипте устроен придел св. Всеволода-Гавриила Псковского.;"Спаса Нерукотворного Образа; Всеволода Псковского";60.035609;30.643066
15333;Церковь Троицы Живоначальной в Всеволожске;церковь;1903;;действ.;Ленинградская обл., г. Всеволожск, Всеволожский просп., 64;Деревянная церковь, обшитая тесом, начатая постройкой в 1903 как часовня и в ходе строительства расширенная до церкви и освященная в 1904. Основной объем восьмигранный в плане, увенчан малым восьмериком с шатриком и пятью главками, с запада к нему примыкает трапезная. В 1941 закрыта, венчания сломаны. В 1945 возвращена верующим и более не закрывалась, устроен приставной Никольский престол. После пожара в 2001 отремонтирована. Освящена великим чином 30 окт. 2016.;"Троицы Живоначальной; Николая Чудотворца";60.016819;30.646652
24750;Часовня Георгия Победоносца в Всеволожске;часовня;2008;;действ.;Ленинградская обл., Всеволожский р-н, г. Всеволожск, пер. Вахрушева, 6;Кирпичная часовня при Всеволожском УВД, сооружённая в 2008 и освящённая 9 дек. 2009. Восьмигранная в плане постройка под шатровой кровлей с крестом.;Георгия Победоносца;60.019041;30.645577
17113;Часовня Иоанна Предтечи при Спасском храме на Дороге Жизни;часовня;2007;нет данных;действ.;Ленинградская обл., Всеволожский р-н, г. Всеволожск, ул. Шишканя, 11А;Кирпичная часовня с баптисерием, заложенная в 2007. Крупная постройка под невысокой шатровой кровлей. Освящена в 2012. Приписана к Храму Спаса Неруковторного образа во Всеволожске.;Иоанна Предтечи;60.035362;30.643211
8131;Собор Преображения Господня в Выборге;церковь;1786;;действ.;Ленинградская обл., г. Выборг, пл. Театральная, 1;Кирпичный храм в стиле классицизма, сооруженный в 1786-1793. Первоначально центрическая постройка, увенчанная куполом, с равновеликими полукруглыми алтарем и боковыми притворами, с отдельно стоящей колокольней, вскоре соединенной с храмом трапезной. В 1863-1866 перестроена трапезная, в 1888-1898 реконструироваы колокольня и алтарь. В трапезной помещены Никольский и Скорбященский приделы. Закрыт в 1940. В 1947 возвращен верующим, более не закрывался.;"Преображения Господня; Иконы Божией Матери Всех Скорбящих Радость; Николая Чудотворца";60.710099;28.739312
12580;Церковь Илии Пророка в Выборге;церковь;1796;;действ.;Ленинградская обл., г. Выборг, Онежская ул., 1;Небольшая кирпичная церковь, построенная в 1796. Была приписана к Преображенскому собору. Базиликальная постройка с главкой на коньке кровли и трёхъярусной колокольней. В 1929-1939 принадлежала финской православной общине. Повреждена во время войны, в кон. 1940-х - нач. 1950-х разобрана. Восстановлена в формах, близких к первоначальным, в 1994-1999.;Илии Пророка;60.713773;28.757755
21098;Церковь Николая Чудотворца в Хависе;церковь;1900;1900-1903: Исаксон А.;сохр.;Ленинградская обл., г. Выборг, ул. Данилова, 15;Кирпичная церковь, возведённая в 1900-1903 рядом с издавна существовавшей часовней. Была приписана к Преображенскому собору Выборга. Небольшая базиликальная постройка с колокольней над притвором и главкой над алтарём. Закрыта в 1924. В советские годы занята ОКБ приборостроительного завода, сейчас - склад.;Николая Чудотворца;60.698832;28.746107
21093;Церковь Петра и Павла в Выборге (гарнизонная);церковь;1710;1844-1845: Таманский П. И.;сохр.;Ленинградская обл., г. Выборг, ул. Госпитальная, 8;Деревянная церковь при военном госпитале, сооружённая в 1844-1845. Крестообразная в плане постройка, обшитая тёсом и украшенная декором в духе классицизма, в прошлом увенчанная куполом. С 1868, после упразднения госпиталя, получила статус гарнизонной. Закрыта вскоре после революции, занята складом. Сохранилась в перестроенном виде, в 1993 сгорела кровля. Находится в сложном техническом состоянии. Для богослужений в 2005 устроена молитвенная комната.;Петра и Павла;60.723188;28.709862
8701;Церковь Трех Святителей Великих в Выборге;церковь;1912;нет данных;сохр.;Ленинградская обл., г. Выборг, угол ул. Подгорная и ул. Сторожевой Башни;"В сер. XIV в. здесь был построен деревянный собор для католического городского прихода, в 1411 здание сгорело во время осады города новгородским войском. В 1418 построен каменный собор, освященный во имя Девы Марии и Св. Олафа, представлявший собой прямоугольное в плане здание под гонтовой крышей. В 1477 собор сгорел, в 1494 был восстановлен с использованием старых стен, при этом интерьер разделили двумя рядами колонн на три нефа. В кон. XV в. собор переоборудован в лютеранский храм и в этом качестве освящен епископом г. Або Мауну Сяркилахти. Одновременно с созданием Выборгской консистории в 1554 собор стал кафедральным. Ок. 1554 здание увеличено по инициативе еп. Паавели Юстена. В XVII в., после реконструкции, стены собора украсили гербами именитых выборгских родов. Собор сильно пострадал во время Северной войны в ходе взятия Выборга русскими войсками в 1710, в 1719 по указу Петра I перестроен как православный храм и освящен в 1725 в честь Рождества Христова. В 1744 пристроен придел Свв. Апп. Петра и Павла. В качестве православного храм существовал до 1788, когда его передали в ведение фуражной комиссии под провиантский склад. В 1912-1913 в помещении устроена православная церковь Трех Святителей 8-го Финляндского стрелкового полка с приделом Свв. Апп. Петра и Павла; при обследовании здания обнаружены следы росписей XV в. и полы из известкового камня, покрытые кирпичными плитками. В 1918 после капитального ремонта храм переоборудован в лютеранскую церковь Свв. Апп. Петра и Павла. В 1937 арх. О. В. Висте выполнил неосуществленный проект реконструкции средневековой постройки. В марте 1940 собор поврежден во время взятия Выборга советскими войсками, сгорели перекрытия и кровля. В настоящее время целы только стены здания без перекрытий.";Трех Святителей Великих;60.713124;28.731001
21099;Часовня Георгия Победоносца на Южном кладбище;часовня;2006;2006-2007: Шаблинская В.;действ.;Ленинградская обл., г. Выборг, Ленинградское ш., у д. 51;Кирпичная четырёхстолпная одноглавая часовня-сень, сооружённая в 2006-2007.;Георгия Победоносца;60.700969;28.781052
19712;Часовня Иконы Божией Матери Казанская на источнике у Выбье;часовня;;нет данных;действ.;Ленинградская обл., Кингисеппский р-н, между д. Выбье и д. Липово;Деревянная шестигранная часовня-сень, с трех сторон открытая. Сооружена в 2000-х у почитаемого источника. Рядом сооружена крупная купальня.;Иконы Божией Матери Казанская;59.703323;28.205525
20973;Часовня Космы и Дамиана в Выре;часовня;1892;1985: Сёмочкин А. А.;действ.;Ленинградская обл., Гатчинский р-н, д. Выра;"Небольшая деревянная часовня в виде неравногранного восьмерика, завершенная низким шатром и луковичной главкой. Построена в 1892 в память события 17.10.1888, была приписана к церкви в Рождествене. Сломана в 1947. Восстановлена в 1985 в старых формах в ходе создания музея ""Дом станционного смотрителя"". В 1989 вновь освящена.";Космы и Дамиана;59.347842;29.959455
5968;Церковь Иконы Божией Матери Казанская в Вырице;церковь;1912;;действ.;Ленинградская обл., Гатчинский р-н, п. Вырица, пр. Кирова, 49;"Деревянная церковь, построенная в честь трёхсотлетия дома Романовых по проекту арх. В. П. Апышкова. Закрыта в 1938, здание использовалось обществом ""ОСОАВИАХИМ"". После начала Великой Отечественной войны во время немецкой оккупации храм был открыт и более не закрывался. В начале 1960-х гг. делалась попытка снова закрыть церковь, неудавшаяся благодаря активной позиции прихожан.";Иконы Божией Матери Казанская;59.403073;30.300808
14068;Церковь Иоанна Кронштадтского в Вырице;церковь;2005;2005: Солунин О. А.;действ.;Ленинградская обл., Гатчинский р-н, пос. Вырица, ул. Павассара, 28;Малый храм при Петропавловской церкви, освященный в 2005. Одноглавый четверик с трапезной.;Иоанна Кронштадтского;59.412583;30.363191
14067;Церковь Петра и Павла в Вырице;церковь;1906;1906-1908: Котович Н. И.;действ.;Ленинградская обл., Гатчинский р-н, пос. Вырица, ул. Павассара, 28;Деревянная церковь в формах эклектики, сооруженная в 1906-1908. Однокупольный храм с колокольней, украшенный богатым декором. Закрыта в 1939, занята под клуб. В ходе боевых действий в конце 1941 разрушены венчания. Богослужения возобновлены в 1942, более не закрывалась.;Петра и Павла;59.411995;30.363465
20735;Часовня Преображения Господня в Поселке;часовня;2002;нет данных;действ.;Ленинградская обл., Гатчинский р-н, пос. Вырица, ул. Купальная, 23;Небольшая деревянная часовня, четырехгранная в плане, сооруженная в 2002 году по инициативе и при участии жителей поселка Вырица Л.Г. Калмыкова и И.Г. Козлова на на месте разрушенного храма Преображения Господня в Поселке.;Преображения Господня;59.370051;30.299213
5969;Часовня Серафима Вырицкого в Вырице;часовня;2000;2000-2001: Павлов С. А.;действ.;Ленинградская обл., Гатчинский р-н, п. Вырица, пр. Кирова, 49;Небольшая деревянная часовня клетского типа, построенная над могилой Серафима Вырицкого.;Серафима Вырицкого;59.403111;30.300234
30333;Церковь Покрова Пресвятой Богородицы в Вычелобоке (каменная);церковь;;1908-1909: Аплаксин А. П.;действ.;Ленинградская обл., Лужский р-н, у д. Вычелобок;;Покрова Пресвятой Богородицы;58.647236;30.071595
6785;Часовня (?) в Вяжищах;часовня;;нет данных;сохр.;Ленинградская обл., Лужский р-н, д. Вяжищи;;;58.916302;30.661854
23544;Церковь Флора и Лавра в Гавсари;церковь;1709;1881-1884: Карпов Г. И. (?);сохр.;Ленинградская обл., Кировский р-н, д. Гавсарь;Небольшая кирпичная церковь, построенная в 1881-1884. Прямоугольная в плане постройка с двухъярусной колокольней. Закрыта в 1930-х. Пустует, постепенно разрушается, перекрытия обрушились.;Флора и Лавра;60.040005;31.810792
26779;Церковь Иконы Божией Матери Почаевская в Гарболово;церковь;2015;нет данных;действ.;Ленинградская обл., Всеволожский р-н, д. Гарболово;Каменная одноглавая однопрестольная церковь - на вытянутый объем четверика установлен восьмерик, на нем - световой барабан, увенчанный сферической главой. Над трапезной - ярус шатровой колокольни. Заложена 17 апр. 2015, освящена великим чином 29 сент. 2018.;Иконы Божией Матери Почаевская;;
8681;Собор Павла Апостола в Гатчине;церковь;1846;1846-1852: Кузьмин Р. И.;действ.;Ленинградская обл., Гатчинский р-н, г. Гатчина, ул. Соборная, 26;"Кирпичное здание четырёхстолпного пятикупольного собора построено в 1846-1852 арх. Р. И. Кузьминым в русско-византийском стиле по проекту, сочетавшему формы древнерусского зодчества (пятиглавие, криволинейные очертания кровли) с композиционными приемами классицизма. Главный престол освящен 29 июня 1852, позднее - приделы Константина и Елены, Александра Невского в верхнем храме и в честь десныя руки Св. Иоанна Крестителя - в нижнем. Отделка завершена в 1863. 24 окт. 1920 свмч. митрополит Петрогр. Вениамин освятил малый временный теплый храм в крипте. Закрыт постановлением през. Леноблисполкома от 11 мая 1939, 28 апр. 1941 утверждены проект и смета на реконструкцию под кинотеатр. Частично разрушен огнем немецкой артиллерии в авг.-сент. 1941, нижний храм действовал с окт. 1941, это помещение в годы войны служило и убежищем горожан. В 1944 после ремонта кровли начаты службы в верхнем храме. 30 дек. 1946 в нижнем храме освящен придел в иконы Божией Матери ""Утоли моя печали"". К сер. 1950-х почти уничтоженные интерьеры восстановлены, 30 сент. 1956 собор освящен после завершения ремонта верхнего храма. Более не закрывался.";"Павла Апостола; Иконы Божией Матери Утоли Моя Печали; Иоанна Предтечи; Константина и Елены; Александра Невского";59.564834;30.129944
11278;Собор Покрова Пресвятой Богородицы в Гатчине;церковь;1896;;действ.;Ленинградская обл., г. Гатчина, ул. Красная, 1А;Большой кирпичный храм эклектичной архитектуры, сооружённый в 1905-1914 на средства К. К. Карпова при подворье женского Пятигорского монастыря. Четырёхстолпная постройка с центральным световым куполом, малыми главками над боковыми рукавами креста и шатровой колокольней. Приделы Александро-Невский и Никольский. Закрыт в 1939. Возвращён верующим в 1992, в цоколе устроен придел Иоанна Кронштадтского (1996).;"Покрова Пресвятой Богородицы; Александра Невского; Иоанна Кронштадтского; Николая Чудотворца";59.564223;30.121754
13661;Церковь Всех Святых в Гатчине;церковь;1888;1888-1889: Дмитриев Н. В. – строительство по собств. проекту;действ.;Ленинградская обл., г. Гатчина, ул. Солодухина;Кирпичная кладбищенская церковь, построенная в 1888-1889 вместо существовавшей с 1851 часовни. Одноглавый четверик с боковыми притворами и шатровой колокольней, украшенный богатым декором в псевдорусском стиле. Закрыта в 1939, повреждена в войну, долгое время пустовала. В настоящее время в тяжелом состоянии, своды основного объема рухнули. В кон. 2000-х начаты восстановительные работы. В 2014 создан приход. Начиная с Пасхи 2015 в храме проводятся регулярные богослужения;Всех Святых;59.557353;30.143695
33481;Церковь Марии Гатчинской в Гатчине;церковь;2020;нет данных;действ.;Ленинградская обл., Гатчинский р-н, г. Гатчина, ул. Соборная;Деревянная однопрестольная церковь построена в 2020-2021 на территории Павловского собора для проведения богослужений в период реставрации собора. Освящена 19 мая 2021. Постройка простой архитектуры - четверик под двухскатной крышей с главой, с апсидой, притвором и южным крыльцом.;Марии Гатчинской;59.565198;30.13015
11279;Церковь Покрова Пресвятой Богородицы в Мариенбурге;церковь;1886;;действ.;Ленинградская обл., г. Гатчина, ул. Круговая, 7;Кирпичная церковь в псевдорусском стиле, сооружённая в 1886-1888. Бесстолпный пятиглавый четверик, окружённый папертями, со звонницей над западным крыльцом и богатым декором. Закрыта в 1933. В 1942, во время оккупации, богослужения возобновлены, более не закрывалась.;Покрова Пресвятой Богородицы;59.567139;30.080395
13663;Церковь Троицы Живоначальной в Гатчинском дворце;церковь;1780;1799-1800: Захаров А. Д. – перестройка;действ.;Ленинградская обл., г. Гатчина, Красноармейский пр., 1;Домовый храм в Гатчинском дворце, устроенный в северо-восточном углу западного (Кухонного) каре дворца, под башней. Сооружен в 1780-1782 одновременно с дворцом, реконструирован в 1844-1849 при реконструкции дворца. Богослужения не проводились с 1917, сильно пострадал после поджога дворца немцами в 1944. Богослужения проводятся с 1999, ведется постепенное восстановление интерьера.;Троицы Живоначальной;;
18079;Церковь Троицы Живоначальной в реальном училище в Гатчине;церковь;1907;1907-1911: Харламов Л. М.;сохр.;Ленинградская обл., г. Гатчина, Чкалова ул., 2;Домовый храм при гатчинском реальном училище, выстроенном в 1899-1900. Устроен в специальной пристройке к зданию училища, сооруженной в 1907-1911. Закрыт в 1918, помещение занято под нужды школы, церковная пристройка хорошо заметна и сейчас.;Троицы Живоначальной;59.557294;30.126606
13662;Церковь Усекновения Главы Иоанна Предтечи в Гатчине;церковь;1910;1910: Яхтман А.;действ.;Ленинградская обл., г. Гатчина, ул. Солодухина;Церковь на гатчинском кладбище, построенная в 1910 как крупная часовня. Кубическое одноглавое здание с полукруглой апсидой. На рубеже 1920-1930-х передана старообрядческой общине, в 1938 закрыта. В 1942 вновь открыта, освящена как православная церковь. В 1967 снова закрыта, в 1990 возвращена верующим, отремонтирована в сер. 2000-х. Первое богослужение в восстанавливаемом храме прошло в 2014. Ныне входит в приход Всехсвятской церкви.;Усекновения Главы Иоанна Предтечи;59.556981;30.142402
20254;Часовня на Гатчинском кладбище;часовня;2001;нет данных;действ.;Ленинградская обл., Гатчинский р-н, Гатчинское кладб. (у д. Пижма);Небольшая деревянная часовня, шестигранная в плане, сооруженная в 2001 на действующем городском кладбище Гатчины.;;59.5196;30.144123
13265;Церковь Рождества Пресвятой Богородицы в Гимреке;церковь;;1970-е: Коляда М. И. – реставрация;сохр.;Ленинградская обл., Подпорожский р-н, д. Гимрека;Деревянная шатровая церковь на подклете с отдельно стоящей шатровой колокольней. Точно установленной даты не имеет, в литературе встречаются даты 1659, 1682, 1695. Высокий четверик завершен восьмериком, несущим шатер, с востока к нему примыкает крытый бочкой алтарь, с запада трапезная. В сер. XIX в. обшита тесом. Приделы Антония Римлянина и Антония Великого. Закрыта не позже 1930-х. Отреставрирована в 1970-х с разборкой тесовой обшивки и восстановлением крылец. Заперта.;"Рождества Пресвятой Богородицы; Антония Римлянина; Антония Великого";61.152119;35.607832
21105;Церковь Рождества Иоанна Предтечи в Глебычево;церковь;2006;2006-2007: Зайцев А. П.;действ.;Ленинградская обл., Выборгский р-н, пос. Глебычево;Деревянная церковь, построенная в 2006-2007 в военном городке при авиабазе. Шатровый храм с боковыми притворами, перекрытыми двускатными кровлями, с обходной галереей и звонницей в верхней части западного притвора.;Рождества Иоанна Предтечи;60.449826;28.719247
17341;Церковь Георгия Победоносца в Ландышах;церковь;;нет данных;действ.;Ленинградская обл., Тосненский р-н, д. Глинка, КП Ландыши;"Деревянная церковь-часовня, трёхчастный сруб под двухскатной кровлей с небольшой главкой над восточной частью, построена на средства инвесторов коттеджного посёлка ""Ландыши"" как часть будущего храмового комплекса.";Георгия Победоносца;59.670751;30.5151
20439;Церковь Рождества Пресвятой Богородицы в Ландышах;церковь;2012;нет данных;действ.;Ленинградская обл., Тосненский р-н, д. Глинка, КП Ландыши;"Храм, заложенный 22 сент. 2012 в коттеджном поселке ""Ландыши"". Железобетонный каркас с заполнением пеноблоками, обложенный кирпичом. Двусветный пятиглавый четверик с притвором и шатровой колокольней, с декором в псевдорусском стиле. Освящен великим освящением 11 дек. 2016.";Рождества Пресвятой Богородицы;59.670721;30.515116
15178;Часовня Николая Чудотворца в Гоморовичах;часовня;;нет данных;действ.;Ленинградская обл., Подпорожский р-н, д. Гоморовичи, ул. Ключевая, 18;Деревянная клётская часовня с притвором, состоит из двух разновеликих срубов под двухскатными покрытиями. После 2008 ремонтировалась (смена кровли). Богослужения проходят не регулярно.;Николая Чудотворца;60.898763;34.734253
9278;Церковь Троицы Живоначальной в Гора-Валдае;церковь;кон. XIX в.;1898-1903: Косяков В. А.;действ.;Ленинградская обл., Ломоносовский р-н, д. Гора-Валдай;Каменная церковь в русском стиле, построена на средства купца И. А. Воронина по проекту архитектора В. А. Косякова. В 1920-х закрыта. В конце 1990-х возвращена верующим, восстанавливается.;Троицы Живоначальной;59.969232;29.202787
18940;Церковь Преображения Господня в Горбунках;церковь;;нет данных;действ.;Ленинградская обл., Ломоносовский р-н, пос. Горбунки, ул. 3-й квартал, 15А;"Деревянная церковь простой архитектуры, представляет собой прямоугольный объём под двухскатной крышей с шатром и главкой на небольшом восьмерике; с западного фасада устроена колокольня. Первоначально здание строилось для церковно-приходской школы, но за неимением средств на строительство храма, перестроено как церковь.";Преображения Господня;59.813653;29.972564
6645;Молитвенный дом Троицы Живоначальной в Хвалово;церковь;1995;нет данных;действ.;Ленинградская обл., Волховский р-н, д. Горка Хваловская, ул. Ленина, 6;Деревянный одноглавый молитвенный дом. Сооружен в 1995 для проведения богослужений в связи с невозможностью быстрого восстановления каменной церкви.;Троицы Живоначальной;59.952029;32.731136
6644;Церковь Троицы Живоначальной в Хвалово;церковь;не позже XVI в.;1820-1826: Макушев А.;действ.;Ленинградская обл., Волховский р-н, д. Горка Хваловская, ул. Ленина, 6;Большой однокупольный кирпичный храм с трапезной и колокольней. Хороший образец стиля классицизма. Построен в 1820-1826, приделы Никольский и Рождество-Богородицкий. Закрыт в 1941, возвращен верующим в 1990-х. Восстановление храма затянулось, вновь освящен 2 окт. 2018.;"Троицы Живоначальной; Рождества Пресвятой Богородицы; Николая Чудотворца";59.952041;32.731566
4648;Часовня Спаса Всемилостивого в Горной Шальдихе;часовня;;нет данных;действ.;Ленинградская обл., Кировский р-н, д. Горная Шальдиха;Каменная придорожная часовня в русском стиле. Построена целиком из Путиловского камня. В советское время закрыта. Вновь возвращена верующим в 2007 году. Приписана к церкви Ксении Петербургской в Приладожском.;Спаса Всемилостивого;59.874148;31.460788
13856;;;;;;;;;58.536865;29.807796
13858;;;;;;;;;58.537092;29.807426
16907;;;;;;;;;59.745732;29.615407
26771;;;;;;;;;60.695085;30.220019
18076;Часовня Николая Чудотворца в Даймище;часовня;2005;нет данных;действ.;Ленинградская обл., Гатчинский р-н, д. Даймище;Деревянная восьмигранная часовня с шатровым завершением, сооруженная в 2005-2009. Приписана к Рождественской церкви в Рождествено.;Николая Чудотворца;59.320698;29.891647
4351;Церковь Покрова Пресвятой Богородицы в Дубно;церковь;нач. XVIII в.;нет данных;сохр.;Ленинградская обл., Волховский р-н, с. Дубно;Деревянная церковь в селе Дубно известна с 1716. Настоящая каменная трехпрестольная церковь с Никольским и Всехсвятским приделами построена крестьянином села Василием Иоанникиевым, крестником Петра Первого. В советское время закрыта.;Покрова Пресвятой Богородицы;60.218313;31.968413
17263;Церковь Иконы Божией Матери Владимирская в Дылицах;церковь;нач. XVIII в.;1762-1766: Чевакинский С. И.;сохр.;Ленинградская обл., Гатчинский р-н, д. Дылицы;Кирпичный однокупольный храм в формах елизаветинского барокко, построенный в 1762-1766, редкий памятник зодчества. Крестообразная в плане постройка с колокольней. Частично перестроен в 1841-1842, устроен Александро-Невский придел. Окончательно закрыт в 1941, в войну повреждена, свод купола обрушился в 1980-х. В настоящее время в аварийном состоянии.;"Иконы Божией Матери Владимирская; Александра Невского";59.482753;29.751642
17500;Церковь в Дятлицах (деревянная);церковь;2011;нет данных;действ.;Ленинградская обл., Ломоносовский р-н, д. Дятлицы;Деревянная церковь, заложенная в 2011 рядом с находящимся в сложном состоянии каменным храмом. Небольшой клетский храм с прямоугольным алтарем и трапезной.;;59.696896;29.65272
17499;Церковь Покрова Пресвятой Богородицы в Дятлицах;церковь;не позже XV в.;нет данных;действ.;Ленинградская обл., Ломоносовский р-н, д. Дятлицы;Кирпичный храм, построенный в 1771-1775 на средства графа К. Г. Разумовского. Образец зрелого классицизма, крестообразный в плане храм с боковыми притворами, полукруглым алтарем и притвором с колокольней, завершенный низкой ротондой. Закрыт в 1939, к 1990-м в аварийном состоянии. В 2009 возвращен верующим, ремонтируется.;Покрова Пресвятой Богородицы;59.696587;29.653685
18075;Часовня Иконы Божией Матери Тихвинская в Еглизи;часовня;1895;нет данных;действ.;Ленинградская обл., Тосненский р-н, д. Еглизи;Деревянная часовня, обшитая тесом. Пятигранная в плане постройка под низкой кровлей с главкой. Построена в 1994 на месте разрушенной в советские годы старой часовни, выстроенной в память спасения Николая II от покушения в Японии.;Иконы Божией Матери Тихвинская;59.544635;30.703252
18074;Церковь Иконы Божией Матери Владимирская в Елизаветино;церковь;1996;нет данных;действ.;Ленинградская обл., Гатчинский р-н, д. Елизаветино, ул. Парковая, 17;Небольшая деревянная клетская церковь с притвором, сооруженная в 2004-2005 в связи с невозможностью быстрого восстановления каменной церкви в Дылицах.;Иконы Божией Матери Владимирская;59.490227;29.778131
18816;Церковь Ксении Петербургской в Жабино;церковь;2008;нет данных;действ.;Ленинградская обл., Гатчинский р-н, д. Жабино;Кирпичный одноглавый храм в русском стиле с притвором, сооруженный в 2008-2012 попечением местных жителей. Освящен 10.11.2012 еп. Гатчинским Амвросием.;Ксении Петербургской;59.601751;29.683169
26781;Церковь Петра и Павла в Житково;церковь;2015;нет данных;действ.;Ленинградская обл., Выборский р-н, пос. Житково;Деревянная церковь - клеть под двускатной крышей, с шатровой колокольней у западного фасада. Построена в 2015, освящена 14 янв. 2016. Приписана к Успенской церкви в Барышево. .;Петра и Павла;60.68966;29.330756
20081;Часовня Иконы Божией Матери Тихвинская в Загорье;часовня;не позже XIX в.;нет данных;действ.;Ленинградская обл., Сланцевский р-н, д. Загорье;Кирпичная четверогранная часовня с шатровым завершением и притвором, построенная в 1910-х вместо деревянной. Приписана к церкви в Ложголово. В настоящее время отремонтирована.;Иконы Божией Матери Тихвинская;59.163081;28.727372
26519;Церковь Пантелеимона Целителя в Загубье;церковь;2001;нет данных;действ.;Ленинградская обл., Волховский р-н, д. Загубье;Деревянная одноглавая однопрестольная церковь, строительство которой начато в 2001 в связи с опасностью проведения служб в разрушающейся Спасо-Преображенской церкви. Службы начаты в 2004, освящена 31 июля 2005.;Пантелеимона Целителя;60.43049;32.771148
28649;Церковь Преображения Господня в Загубье;церковь;не позже нач. XVIII в.;нет данных;сохр.;Ленинградская обл., Волховский р-н, д. Загубье;Каменная двухпрестольная церковь с Георгиевским приделом (1839), построена на средства прихожан вместо прежней деревянной (1718), сгоревшей в 1824. Деревянная ротонда (не сохр.) на четверике с трапезной и ярусной колокольней. В советское время закрыта, сломаны завершения, заброшена. В 1997 возвращена верущим.;"Преображения Господня; Георгия Победоносца";;
21020;Церковь Михаила Архангела в Зажупанье;церковь;1903;1903-1908: Андреев С. И.;действ.;Ленинградская обл., Сланцевский р-н, д. Зажупанье;Кирпичная церковь, сооружённая в 1903-1908 в дальних деревнях доложского прихода, в 1908 выделенных в отдельный приход. Пятиглавый четверик с богатым декором в псевдорусском стиле, с боковыми притворами, небольшой трапезной и шатровой колокольней. В 1939 закрыта, во время оккупации открыта, вновь закрыта в 1962. В 1990 возвращена верующим в аварийном состоянии. Службы возобновлены в мае 2017.;Михаила Архангела;58.914796;28.628741
23374;Церковь Покрова Пресвятой Богородицы в Замостье;церковь;не позже 1539;нет данных;сохр.;Ленинградская обл., Тосненский р-н, ур. Замостье (1 км СЗ д. Васькины Нивы);Небольшая кирпичная церковь в формах классицизма, построенная в 1798-1806 на средства П. В. Волкова. Четверик с полукруглым алтарем. Закрыта в 1936. Пустует, венчания обрушились.;Покрова Пресвятой Богородицы;59.493125;31.269643
30442;Часовня Петра и Павла в Заозерье;часовня;XVIII в.;нет данных;действ.;Ленинградская обл., Подпорожский р-н, д. Заозерье, ул. Петропавловская, 26А;Деревянная часовня покрытая тесом. Четверик с западной галереей и крыльцом, под двухскатной кровлей с главкой и колокольней. Принадлежала Николаевской церкви в Согиницах. В 2020- 2021 выполнены ремонтно-реставрационные работы в соответствии с Государственной программой Ленинградской области.;Петра и Павла;61.078019;34.246439
6788;Церковь Климента, папы Римского, в Заполье;церковь;не позже XV в.;нет данных;сохр.;Ленинградская обл., Лужский р-н, д. Заполье;Кирпичная церковь типа восьмерик на четверике с классицистическим декором, интересная пятиглавым завершением восьмерика, с трапезной и колокольней. Построена в 1827. Закрыта в 1939, позже разрушены трапезная и колокольня. В настоящее время возвращена РПЦ, ремонт еще не начат.;Климента, папы Римского;58.916428;30.646693
20018;Церковь Петра и Павла в Заполье;церковь;не позже 1-й трети XVIII в.;1898-1901: Никонов Н. Н.;сохр.;Ленинградская обл., Волосовский р-н, д. Заполье;Кирпичная церковь в псевдорусском стиле, сооруженная в 1898-1901. Однокупольная постройка с колокольней. В 1941 закрыта, в войну сильно повреждена. Пустует.;Петра и Павла;59.373931;29.494668
21018;Церковь Успения Пресвятой Богородицы в Заручье (каменная);церковь;не позже XVI в.;1896-1899: Никонов Н. Н. – перестройка;сохр.;Ленинградская обл., Сланцевский р-н, д. Заручье;Кирпичная церковь с декором в русско-византийском стиле, построенная в 1858-1864 при помощи вел. кн. Константина Николаевича. Трёхнефный храм с поперечным трансептом и шатровой колокольней над западным притвором. Приделы Михаила Архангела и Константина и Елены. Закрыта в 1939. Восстанавливается с 1990, но пока отремонтирована только колокольня.;"Успения Пресвятой Богородицы; Константина и Елены; Михаила Архангела";58.960152;28.510614
21019;Часовня Успения Пресвятой Богородицы в Заручье;часовня;не позже XIX в.;нет данных;действ.;Ленинградская обл., Сланцевский р-н, д. Заручье;"Кирпичная ""входная"" часовня в псевдорусском стиле. Четверик со срезанными углами, завершённый шатром с главкой. Отремонтирована в 1990-х.";Успения Пресвятой Богородицы;58.960008;28.509434
20196;Зеленецкий Троицкий мужской монастырь;монастырь;нач. 1560-х;: Сырков Ф. Д.;действ.;Ленинградская обл., Волховский р-н, пос. Зеленец;Мужской монастырь, основанный в нач. 1560-х прп. Мартирием Зеленецким. В Смутное время разорён, позже восстановлен. Отстроен в камне в 1680-х попечением митр. Новгородского Корнилия, постриженника монастыря. Помимо храмов были сооружены келейные корпуса и отдельно стоящая шатровая колокольня, ограда с башнями. К нач. ХХ в. немноголюден. Закрыт в 1919, в постройках размещались коммуна, трудовая колония, подсобное хозяйство, дом инвалидов. С 1975 постройки пустовали, с 1980-х реставрировались. Вновь открыт в 1991.;;59.788795;32.774308
20197;Собор Троицы Живоначальной в Зеленецком Троицком монастыре;церковь;нач. 1560-х;нет данных;действ.;Ленинградская обл., Волховский р-н, пос. Зеленец;Кирпичный храм на подклете, возведённый в 1684. Четырёхстолпная пятиглавая постройка с пощипцовым завершением фасадов, с трёхапсидным алтарём с востока, с севера и запада охваченная закрытыми папертями (реконструированы в 1886). В XVIII-XIX вв. устроены кровля на четыре ската и новые купола. В цокольном этаже престол Иоанна Богослова (1773). Закрыт не позже 1920-х, реставрировался с 1980-х, восстановлены первоначальные формы венчаний.;"Троицы Живоначальной; Иоанна Богослова";59.788811;32.774737
20198;Церковь Благовещения Пресвятой Богородицы в Зеленецком Троицком монастыре;церковь;ок. 1570;нет данных;действ.;Ленинградская обл., Волховский р-н, пос. Зеленец;Кирпичный трапезный храм на высоком подклете, сооружённый к северу от Троицкого собора в 1683 (в ряде источников ошибочно датируется 1560-ми). К одноглавому одноапсидному четверику церкви примыкает с запада обширная трапезная палата, интересная изразцовым обрамлением ряда оконных наличников. Закрыт в 1932, реставрировался с 1980-х. В 1990-х в храме возобновлены богослужения.;Благовещения Пресвятой Богородицы;59.789088;32.774512
20200;Часовня Мартирия Зеленецкого у Зеленецкого Троицкого монастыря;часовня;не позже XIX в.;нет данных;действ.;Ленинградская обл., Волховский р-н, пос. Зеленец;Деревянная часовня в лесу, юго-западнее монастыря, сооружённая на месте первоначального поселения прп. Мартирия. Старая часовня, существовавшая до революции, в ХХ в. разрушена. В 2001 построена новая деревянная одноглавая часовня с клетским завершением.;Мартирия Зеленецкого;59.784561;32.760253
20199;Часовня надкладезная у Зеленецкого Троицкого монастыря;часовня;не позже XIX в.;нет данных;действ.;Ленинградская обл., Волховский р-н, пос. Зеленец;Деревянная часовня, обшитая тесом, восьмигранная в плане, с западным притвором. Основной объём перекрыт куполом с главкой. Сооружена у южной стены монастыря, над чтимым источником.;;59.788098;32.774774
15172;Часовня Иконы Божией Матери Всех Скорбящих Радость в Змеевой Новинке;часовня;2000;нет данных;действ.;Ленинградская обл., Киришский  р-н, д. Змеева Новинка;Деревянная шатровая часовня, построена по типу трёхчастных рубленных храмов. Приписана к Троицкой церкви в Киришах.;Иконы Божией Матери Всех Скорбящих Радость;59.186504;32.572768
7202;Церковь Николая Чудотворца в Ивангороде;церковь;1490-е;нет данных;действ.;Ленинградская обл., Кингисеппский р-н, г. Ивангород;;Николая Чудотворца;59.374675;28.206874
10596;Церковь Троицы Живоначальной на Парусинке;церковь;1873;1873-1875: Кракау А. И.;действ.;Ленинградская обл., Кингисеппский р-н, г. Ивангород;Кирпичная церковь, сооружённая в 1873-1875 на средства барона А. Л. Штиглица в память цесаревича Николая Александровича. Хороший пример стилизации форм московского зодчества 2-й пол. XVII в. Пятиглавый четверик с трапезной и шатровой колокольней, с богатым и продуманным декором. Первоначально приписана к Преображенскому собору Нарвы. Закрыта в 1944, к 1980-м заброшена. Возвращена верующим в 1997, отреставрирована.;Троицы Живоначальной;59.351539;28.193879
7201;Церковь Успения Пресвятой Богородицы в Ивангороде;церковь;сер. XVI в.;1507-1509: Грек М.;действ.;Ленинградская обл., Кингисеппский р-н, г. Ивангород;Каменная трёхапсидная церковь на подклете с тёплым Покровским приделом. Строительство приписывается (предположительно) венецианскому арх. Маркусу Греку. В кон. XVII в., после взятия Ивангорода шведами, в церкви размещалась лютеранская кирха. Вновь освящена в 1744, в период 1827-1864 подчинялась военному ведомству. Закрыта в 1940-х, возвращена верующим в сер. 1990-х.;"Успения Пресвятой Богородицы; Покрова Пресвятой Богородицы";59.374949;28.206515
19848;Церковь Иоанна Богослова в Ивановском;церковь;1901;1901-1905: Косяков В. А.;действ.;Ленинградская обл., Кингисеппский р-н, пос. Ивановское;Кирпичная церковь в псевдорусском стиле в поселке при бумагопрядильной фабрике, выстроенная в 1901-1905 попечением Н. И. Гирс. Первоначально приписана к храму в Ястребине, с 1911 приходская. Пятиглавый четверик с симметричными алтарём и притворами, с шатровой колокольней. Закрыта в 1936, венчания сломаны. В 2001 возвращена верующим, ремонтируется.;Иоанна Богослова;59.284499;28.870249
19849;Часовня-часовня Троицы Живоначальной в Ивановском;церковь;2000;нет данных;действ.;Ленинградская обл., Кингисеппский р-н, пос. Ивановское;Деревянная часовня, сооруженная в 2000 на кладбище. В 2001-2002 реконструирована в небольшой храм. Одноглавый четверик с алтарем и притвором.;Троицы Живоначальной;59.283745;28.86604
20019;Церковь Иконы Божией Матери Казанская в Изваре;церковь;1914;;действ.;Ленинградская обл., Волосовский р-н, д. Извара;Кирпичная домовая церковь в неорусском стиле, пристроенная к двухэтажному зданию сельскохозяйственной школы Земледельческой колонии. Сооружена в 1914-1917, вскоре после революции закрыта. В 1991 возвращена верующим.;Иконы Божией Матери Казанская;59.354732;29.518515
8886;Церковь Николая Чудотворца в Ильешах;церковь;;;действ.;Ленинградская обл., Волосовский р-н, д. Ильеши;;Николая Чудотворца;59.502564;29.106292
26778;Церковь Ирины Великомученицы в Ириновке;церковь;2018;нет данных;действ.;Ленинградская обл., Всеволожский р-н, д. Ириновка;Деревянная церковь-часовня, перевезенная из Путилково Кировского р-на. Крестообразная в плане постройка под низкой шатровой кровлей. Вновь освящена как Ирининская 30 сент. 2018.;Ирины Великомученицы;60.077693;30.92729
20447;Церковь Модеста, патриарха Иерусалимского, в Иссаде;церковь;не позже XVI в.;1867: Мусселиус А. В. (?);сохр.;Ленинградская обл., Волховский р-н, д. Иссад;Кирпичная тёплая церковь, построенная в 1866-1867 на средства купца Н. Ф. Кулагина. Прямоугольный в плане односветный объём с прямоугольными алтарём и притвором, увенчанный небольшим декоративным восьмериком под шатром. Закрыта в 1940. К 2000-м от храма осталась только коробка стен без перекрытий. Возвращена верующим в 2005, ремонтируется.;Модеста, патриарха Иерусалимского;60.070057;32.340828
3819;Церковь Троицы Живоначальной в Иссаде;церковь;не позже XVI в.;;действ.;Ленинградская обл., Волховский р-н, с. Иссад, д. 14А;Кирпичная церковь, построенная в 1863-1866 на средства купца Н. Ф. Кулагина и местных землевладельцев. Четырехстолпный храм в русско-византийском стиле, завершенный пятью восьмигранными барабанами с шатровыми куполами, с притвором и шатровой колокольней. Приделы Алексия, человека Божия, и сщмч. Назария. Закрыта в 1941, к 1990-м заброшена, в сложном техническом состоянии. В 2005 возвращена верующим, ремонтируется.;"Троицы Живоначальной; Алексия, человека Божия";60.069789;32.341214
30247;Церковь Георгия Победоносца в Казыченской;церковь;;нет данных;сохр.;Ленинградская обл., Подпорожский р-н, д. Казыченская;;Георгия Победоносца;60.395568;35.056277
30248;Часовня в Казыченской;часовня;2004;нет данных;действ.;Ленинградская обл., Подпорожский р-н, д. Казыченская, у моста через р. Оять;Деревянная часовня под двухскатной крышей с крестом, обшитая досками, построена в 2004.;;60.394622;35.061526
8780;Часовня Анастасии Узорешительницы в Кайболове;часовня;не позж. нач.  XVIII в.;нет данных;сохр.;Ленинградская обл., Кингисеппский р-н, д. Кайболово;Деревянная часовня, предположительно была перестроена из бывшей Никольской церкви (1713). В советское время закрыта, заброшена, разрушается.;Анастасии Узорешительницы;59.566294;28.883193
19709;Церковь Екатерины Великомученицы в Каложицах;церковь;1850;нет данных;действ.;Ленинградская обл., Волосовский р-н, д. Каложицы;Кирпичная церковь в русско-византийском стиле, построенная в 1850-1859 помещиком князем Д. Н. Долгоруковым. Четверик с симметричными притворами и алтарём. В 1876 пристроена колокольня. Закрыта в 1941, венчания сломаны. Поддерживается в порядке, долгое время использовалась как клуб. Ок. 2005 отдана верующим, ремонтируется.;Екатерины Великомученицы;59.420947;29.045289
10593;Часовня Пантелеимона Целителя в Каложицах;часовня;;нет данных;действ.;Ленинградская обл., Волосовский р-н, п. Каложицы;;Пантелеимона Целителя;59.41537;28.984069
21015;Часовня Илии Пророка в Каменце;часовня;2002;нет данных;действ.;Ленинградская обл., Сланцевский р-н, д. Каменец;Деревянная часовня, построенная в 2002 усилиями местных жителей. Прямоугольная в плане постройка под двускатной кровлей с главкой.;Илии Пророка;58.889163;28.582273
21107;Церковь Георгия Победоносца в Каменке;церковь;1994;нет данных;действ.;Ленинградская обл., Выборгский р-н, пос. Каменка, д. 19;Деревянная крестообразная в плане церковь простой архитектуры, построенная в 2002 в военном гарнизоне. Второй престол Елисаветы в Варвары.;"Георгия Победоносца; Елисаветы Феодоровны и Варвары Преподобномучениц";60.437728;29.095037
21108;Церковь Иконы Божией Матери Умягчение злых сердец в Каменке;церковь;1997;2007: Зайцев А. П.;действ.;Ленинградская обл., Выборгский р-н, пос. Каменка;Церковь на территории 30-го военного госпиталя, построенная в 2007 вместо прежде бывшей в приспособленном помещении. Четверик перекрыт шатром на крестчатой бочке, несущим пятиглавие, с запада пристроены трапезная с шатровой звонницей над притвором.;Иконы Божией Матери Умягчение злых сердец;60.447805;29.082817
26785;Церковь Серафима Саровского в Каменногорске;церковь;1993;нет данных;действ.;Ленинградская обл., Выборгский р-н, г. Каменногорск, ул. Леншоссе, 100;Православный приход образован в 1993. С 1994 службы шли в приспособленном нежилом здании. Постоянный храм заложен 23 июня 1997. Выстроен рубленый деревянный одноглавый однопрестольный храм - четверик с боковыми прирубами, четырехугольной апсидой и западным притвором со звонницей. Освящен малым чином 1 авг. 2004. В 2008-2011 перестроен внутри и снаружи, сруб обшит вагонкой.;Серафима Саровского;;
6537;Церковь Рождества Иоанна Предтечи в Каменных Полянах;церковь;не позже сер. XVI в.;нет данных;сохр.;Ленинградская обл., Лужский р-н, ур. Каменные Поляны (3 км СВ д. Мошковы Поляны);Четырёхстолпный двуглавый храм на подклете, редкий образец новгородского зодчества XVI в. на территории Ленинградской обл. Имел Митрофановский и Духовский приделы.Планируется восстановление.;"Рождества Иоанна Предтечи; Сошествия Святого Духа; Митрофана, епископа Воронежского";58.811017;30.694533
30232;Церковь Георгия Победоносца в Кармановской;церковь;не позже 1618;нет данных;сохр.;Ленинградская обл., Подпорожский р-н, д. Кармановская, ул. Рябиновая;Деревянная однопрестольная церковь на каменном фундаменте, покрытая тесом, построена в 1897 вместо ветхой предшествующей на средства московского купца П. С. Найденова. Освящена 2 нояб. 1897. Одноглавый четверик с алтарным прирубом, с двухъярусной колокольней над притвором. Закрыта в нач. 1930-х, существенно перестроена, утрачены завершения, колокольня. До настоящего времени используется под Дом культуры.;Георгия Победоносца;60.55835;34.866478
30233;Часовня в Кармановской;часовня;2020;нет данных;действ.;Ленинградская обл., Подпорожский р-н, д. Кармановская, ул. Рябиновая;Деревянная часовня, квадратная в плане, под двухскатным завершение с крестом построена в 2020. Освящена 07.01.2021. Приписана к Смоленской церкви в Винницах.;;60.558358;34.867085
21614;Церковь Николая Чудотворца в Карташевской;церковь;2006;нет данных;действ.;Ленинградская обл., Гатчинский р-н, пос. Карташевская, ул. Красная, 28;Первоначально временная церковь, устроенная в 2006 после пожара главного храма в приспособленном помещении. В 2012-2014 сооружена отдельная небольшая деревянная церковь. Здание типа восьмерик на четверике, завершенное шатром, с небольшими алтарем и притвором. Освящена 2 июля 2016.;Николая Чудотворца;59.404882;30.072595
21612;Церковь Петра и Павла в Карташевской;церковь;1910;2007-2025: Котович Н. И.;действ.;Ленинградская обл., Гатчинский р-н, пос. Карташевская, ул. Красная, 28;Деревянная церковь, обшитая тёсом, построенная в 1910-1913. Четверик завершался малым восьмериком под шатром, над притвором была поставлена шатровая колокольня. Закрыта в 1940, в период оккупации действовала, в 1945 вновь закрыта, сильно перестроена, использовалась как клуб. Возвращена верующим в 1994. Сгорела в февр. 2006. В 2007 заложена кирпичная церковь в духе средневекового новгородского зодчества на месте сгоревшего деревянного храма. Строительство шло достаточно медленно, в целом завершено в 2025.;Петра и Павла;59.40488;30.072595
8887;Церковь Николая Чудотворца в Кёрстово;церковь;;1869-1870: Буланов И. И.;действ.;Ленинградская обл., Кингисеппский р-н, д. Кёрстово;Кирпичная однокупольная церковь в стиле историзма построена в 1869-1870 на средства генерал-адъютанта Н. В. Зиновьева и купца с. И. Орлова, по проекту арх. И. И. Буланова. Закрыта в 1938, временно открывалась в 1942-1944. В 1950-е занята складом. В настоящее время частично отремонтирована, восстановлен алтарь, совершаются богослужения. В 2023 храм приписан к Никольской церкви в Котлах.;Николая Чудотворца;59.475215;28.779167
18096;Церковь Николая Чудотворца в Кикерино;церковь;1902;1907-1909: Воротилов В. А.;действ.;Ленинградская обл., Волосовский р-н, пос. Кикерино, ул. Михайловская, 1;Деревянная церковь, обшитая тесом. Одноглавый четверик с алтарем, притвором и трехъярусной колокольней. Построена в 1907-1909, первоначально Преображенская, принадлежала Пятогорскому монастырю. В 1939 закрыта, венчания сломаны, использовалась как жилой дом. В 1994 возвращена верующим, освящена как Никольская, венчания восстановлены в упрощенных формах.;Николая Чудотворца;59.464562;29.624779
7154;Собор Екатерины Великомученицы;церковь;;1764-1773: Ринальди А.;действ.;Ленинградская обл., г. Кингисепп, пл. Николаева, 6;Каменный собор, построен в 1764-1773 по проекту А. Ринальди, перестраивался (пятиглавие) в 1783. В советское время закрыт (1930-е), пострадал во время войны, восстановлен. В нач. 1990-х возвращён верующим.;Екатерины Великомученицы;59.374711;28.593791
18753;Церковь Всех Святых Петербургских в Кингисеппе;церковь;2005;нет данных;действ.;Ленинградская обл., Кингисеппский р-н, г. Кингисепп, мкрн. Новый Ямбург;Небольшая кирпичная церковь, сооруженная в 2007-2010 у чтимого источника. Миниатюрный четверик с трифолийными завершениями фасадов, с трапезной и колокольней под каркасным шатром.;Всех Святых;59.368694;28.585578
7576;Церковь Иконы Божией Матери Всех Скорбящих Радость;церковь;1854;1855-1858: Брандт К. И.;сохр.;Ленинградская обл., г. Кингисепп, старое кладбище;Каменная двухпрестольная кладбищенская церковь, построена по проекту архитектора К. И. Брандта на средства ямбургского купца Дмитрия Васильевича Полякова и пожертвования горожан. В приделе св. Петра так же проводил службы полковой священник Лейб-Гвардии Кексгольмского Императора Австрийского полка. Закрыта в 1938, до 1941 в здании размещался краеведческий музей. В 1955 церковь была взорвана на кирпич. В настоящее время находится в сильно руинированном состоянии.;"Иконы Божией Матери Всех Скорбящих Радость; Петра, митрополита Московского";59.384644;28.601977
30239;Часовня Николая Чудотворца у Киприяновской;часовня;;нет данных;действ.;Ленинградская обл., Подпорожский р-н, оз. Сарозеро, остров;;Николая Чудотворца;60.461673;34.73568
30240;Часовня Серафима Саровского на Сарозере;часовня;2007;нет данных;действ.;Ленинградская обл., Подпорожский р-н, оз. Сарозеро, остров;Деревянная двухглавая бревенчатая часовня с крыльцом построена в 2007. Приписана в Смоленской церкви в Винницах.;Серафима Саровского;60.461673;34.73568
30412;Церковь Иконы Божией Матери Казанская в Шустручье;церковь;не позже 1870;нет данных;сохр.;Ленинградская обл., Подпорожский р-н, д. Кипрушино, ул. Миронкова;Каменная однопрестольная церковь построена в 1870 на средства Я. И. Миронкова. Освящена 7 июля 1870. Пятиглавый двусветный четверик с граненой апсидой небольшой трапезной связан с трёхъярусной колокольней. Закрыта в 1939, заброшена. Находится в тяжелом техническом состоянии.;Иконы Божией Матери Казанская;60.939169;35.437432
30413;Церковь Илии Пророка в Шустручье;церковь;не позже 1679;нет данных;сохр.;Ленинградская обл., Подпорожский р-н, д. Кипрушино, ул. Миронкова;Деревянная трёхпрестольная церковь обшитая тёсом, на каменном фундаменте, построена в 1780 на средства прихожан вместо предшествующей (1679). Ремонтировалась в 1882. Дополнительные престолы: Георгиевский и Кирика и Иулитты. Четверик завершенный декоративными бочками с пятиглавием, с двухчастным алтарным прирубом и трапезной с притвором и двухскатным крыльцом. Закрыта в 1934, заброшена. Обрушилась, находится в руинированном состоянии.;"Илии Пророка; Кирика и Иулитты; Георгия Победоносца";60.939502;35.436783
21110;Церковь Ксении Петербургской в Кирилловском;церковь;2009;нет данных;действ.;Ленинградская обл., Выборгский р-н, пос. Кирилловское, ул. Советская, 30;Церковь устроена в 2009 в приспособленном деревянном одноэтажном здании.;Ксении Петербургской;60.468827;29.287168
15170;Церковь Троицы Живоначальной в Киришах;церковь;1993;нет данных;действ.;Ленинградская обл., г. Кириши, ул. Мира, 10;Временная церковь, устроенная на первом этаже жилого дома. Начатое в 1993 строительство каменной церкви на ул. Советской приостановлено.;Троицы Живоначальной;59.455993;32.024079
16652;Церковь Усекновения Главы Иоанна Предтечи в Кировске;церковь;1992;1992 - 1-я пол. 2000-х: Лошаков П. И.;действ.;Ленинградская обл., Кировский р-н, г. Кировск, ул. Набережная, 6А;Вновь образованная община верующих г. Кировск для богослужений с 1992 временно использовала переоборудованное старое деревянное складское здание. Проект нового храма из современных стройматериалов, на основе стального несущего каркаса, разработал в 1997-1998 арх. П. И. Лошаков. К началу лета 1998 выполнен нулевой цикл строительства, однако в связи со сменой городской администрации и нехваткой средств работы были заморожены. В связи с этим, в 1-й пол. 2000-х временная церковь была расширена, ныне представляет собой протяжённый барачного вида корпус с имитирующей восьмерик на четверике одноглавой надстройкой посередине.;Усекновения Главы Иоанна Предтечи;59.881604;30.982173
20450;Церковь Феодора Стратилата в Кисельне;церковь;не позже XVI в.;нет данных;действ.;Ленинградская обл., Волховский р-н, д. Кисельня;Кирпичная церковь с декором в псевдорусском стиле, построенная в 1903-1906 по образцу храма в Чернавино. Прямоугольная в плане постройка под двускатной кровлей с малым световым восьмериком по центру, с шатровой колокольней над притвором. Закрыта в 1939, купол и звонница сломаны. В 1995 возвращена верующим, отремонтирована, венчания восстановлены в упрощенном виде.;Феодора Стратилата;60.010692;32.146092
19115;Церковь Петра и Павла в Клопицах;церковь;не позже нач. XVIII в.;нет данных;сохр.;Ленинградская обл., Волосовский р-н, д. Клопицы;Кирпичная церковь, построенная в 1784-1788 помещиком Мусиным-Пушкиным. Односветный четверик, в прошлом перекрытый деревянным куполом, с алтарем и притвором, над которым стоял деревянный ярус звона. С 1896 служила часовней, в 1900 передана русско-эстонскому православному приходу, закрыта в 1922. Ныне заброшена, уцелели только стены.;Петра и Павла;59.532572;29.472874
6786;Церковь Флора и Лавра в Клюкошицах;церковь;не позже XVI в.;нет данных;действ.;Ленинградская обл., Лужский р-н, с. Клюкошицы;Кирпичная однопрестольная церковь в псевдорусском стиле, близкая к типовым, построенная в 1872. Закрыта в 1939, вновь открыта в 1942 и более не закрывалась. Колокольня восстановлена в упрощенных формах.;Флора и Лавра;58.93331;30.720511
6670;Церковь Николая Чудотворца в Кобоне;церковь;не позже сер. XVII в.;1860-1861: Щурупов М. А. – перестройка;действ.;Ленинградская обл., Кировский р-н, д. Кобона;;Николая Чудотворца;60.022861;31.557562
17262;Церковь Успения Пресвятой Богородицы в Кобрино;церковь;2004;2004-2011: Демченко Н. А.;действ.;Ленинградская обл., Гатчинский р-н, д. Кобрино;Кирпичная однокупольная церковь, стилизованная в духе домонгольского зодчества. Построена в 2004-2011 рядом с кобринским кладбищем, освящена 28.08.2011. Приписана к храму в Карташевской.;Успения Пресвятой Богородицы;59.419012;30.11923
17057;Церковь Геннадия, архиепископа Новгородского и Евфимия, архиепископа Новгородского, на Ковалёвском кладбище;церковь;1997;нет данных;действ.;Ленинградская обл., Всеволожский р-н, пос. Ковалево, д. 36;Небольшая кирпичная одноглавая церковь простой архитектуры с двухъярусной звонницей, построенная в 1997 на Ковалевском кладбище Санкт-Петербурга.;Евфимия, архиепископа Новгородского;59.990372;30.566207
31806;Церковь Благовещения Пресвятой Богородицы в Ковашах;церковь;не позже 1788;;действ.;Ленинграская обл., Ломоносовский р-н, д. Коваши;Деревянная двухэтажная двухпрестольная церковь с колокольней, с Никольским приделом построена на средства князя Я. П. Долгорукова и освящена 25 сент. 1788. В 1903 перестроена по проекту арх. В. А. Данини. Закрыта в 1930-х, передана областной психиатрической больнице, после закрытия больницы разрушена. Воссоздана в 2021-2024 архитектурной мастерской АРХХРАМ под руководством А. Н. Оболенского по нереализованному проекту (1911) арх. В. А. Косякова. Построена каменная (кирпично-бетонная) пятиглавая однопрестольная церковь в русском стиле с трапезной и шатровой колокольней. Освящена 7 апр. 2024.;Благовещения Пресвятой Богородицы;59.900523;29.254535
7219;Покровский Поречский женский монастырь;монастырь;1902;нет данных;сохр.;Ленинградская обл., Сланцевский р-н, д. Козья Гора;Женская община основана в 1902 у д. Поречье пенинского прихода, на земле, выделенной А. А. Кудрявцевым и М. Е. Егоровым. Преобразована в женский монастырь в 1919, в артель в 1925, окончательно закрыта в 1929. Постройки, помимо церкви, разрушены не позже 1940-х.;;;
7221;Церковь Покрова Пресвятой Богородицы в Покровском Поречском монастыре;церковь;1904;1904-1908: Косяков В. А.;действ.;Ленинградская обл., Сланцевский р-н, д. Козья Гора;Кирпичная церковь в псевдорусском стиле, построенная в 1904-1908. Трехнефная постройка с пятиглавым четвериком над восточной частью и шатровой колокольней над западной, близка к типовым проектам. Боковые приделы Петропавловский, Николая Чудотворца и Максима Исповедника. Закрыта в 1937, открыта в 1942 и более не закрывалась.;"Покрова Пресвятой Богородицы; Максима Исповедника; Николая Чудотворца; Петра и Павла";59.010067;28.777356
4166;Церковь Иоанна Кронштадтского в Колтушах;церковь;;1996-1997: Зайцев А. П.;действ.;Ленинградская обл., Всеволожский р-н, пос. Колтуши, с. Павлово, д. 30;;Иоанна Кронштадтского;59.932913;30.657066
7240;Церковь Иконы Божией Матери Тихвинская в Колчаново;церковь;не позже XVI в.;1854-1862: Андреев А. Я.;сохр.;Ленинградская обл., Волховский р-н, с. Колчаново;Большая кирпичная четырёхстолпная пятикупольная церковь в русско-византийском стиле с трёхъярусной колокольней под луковичным куполом. Сооружена в 1854-1862 на средства новоладожских купцов. Близка к проектам К. А. Тона. Боковые приделы Рождества Предтечи и Василия Анкирского. Закрыта в 1938. В настоящее время заброшена.;"Иконы Божией Матери Тихвинская; Василия Анкирского; Рождества Иоанна Предтечи";60.009789;32.593581
26761;Церковь Пантелеимона Целителя в Колчаново;церковь;2001;нет данных;действ.;Ленинградская обл., Волховский р-н, с. Колчаново, ул. Центральная, 28;"Кирпичная двухэтажная однопрестольная церковь - четверик под двускатной крышей с пятигранной апсидой, трапезной и ярусом шатровой колокольни над трапезной. На первом этаже - крестильня. Построена в 2001-2012 силами одного человека - Александра Николаевича Ершкова, главного врача детского пульмонологического санатория ""Колчаново"". Вначале часовня, 25 февр. 2012 освящённая малым чином как церковь-часовня, приписанная к Ильинскому храму в Волхове. В 2016 передана в дар епархии, 26 авг. 2018 освящена великим чином.";Пантелеимона Целителя;60.015097;32.586329
7241;Церковь Рождества Христова в Колчаново;церковь;не позже XVI в.;нет данных;сохр.;Ленинградская обл., Волховский р-н, с. Колчаново;Кирпичная однокупольная церковь в стиле классицизма с колокольней, сравнительно небольшая по размерам. Сооружена в 1792 на средства княгини Ф. С. Мещерской как тёплый храм прихода. Закрыта в 1938. В настоящее время сохранилась коробка стен без сводов. В 2020 получсен президентский грант на восстановление храмового комплекса.;Рождества Христова;60.008898;32.595062
18949;Церковь Владимира равноапостольного в Коммунаре;церковь;ок. 2001;нет данных;действ.;Ленинградская обл., Гатчинский р-н, г. Коммунар, ул. Строителей;Община создана ок. 2001, богослужения проходили в приспособленном помещении. Небольшая деревянная одноглавая клетская церковь с прямоугольными алтарем и притвором построена в 2011-2012. Планируется сооружение каменного здания.;Владимира равноапостольного;59.616825;30.383377
20849;Церковь Покрова Пресвятой Богородицы в Кондратьево;церковь;1999;1999-2000: Караулов Е. А.;действ.;Ленинградская обл., Выборгский р-н, пос. Кондратьево;Деревянная церковь, построенная в 1999-2000 и освященная 26.10.2000. Четверик с пощипцовым завершением фасадов, увенчанный двумя убывающими по ширине четвериками и главкой, с алтарем и притвором.;Покрова Пресвятой Богородицы;60.621748;28.164961
18201;Казанский скит Коневского монастыря;монастырь;1796;1817: Иларион – строительство по собств. проекту (монастырский корпус(корпуса));действ.;Ленинградская обл., Приозерский р-н, о. Коневец;Скит, устроенный на Святой горе, в центральной части острова, на месте первоначального поселения прп. Арсения. Создан в 1796 наместником иером. Адрианом. Помимо церкви были построены кельи. В настоящее время восстановлен.;;60.852112;30.598493
18202;Церковь Иконы Божией Матери Казанская в Казанском скиту Коневского монастыря;церковь;1794;нет данных;действ.;Ленинградская обл., Приозерский р-н, о. Коневец;Кирпичная однопрестольная церковь, построенная в 1794-1798 наместником иером. Адрианом. Одноглавый одноапсидный четверик с притвором и колокольней, перестроенной во 2-й пол. XIX в. В 2000-х отремонтирована.;Иконы Божией Матери Казанская;60.852093;30.598423
18195;Коневский Рождество-Богородицкий мужской монастырь;монастырь;1393;;действ.;Ленинградская обл., Приозерский р-н, о. Коневец;Мужской монастырь, основанный в 1393 прп. Арсением Коневским, уроженцем Новгорода, на острове в Ладожском озере. Первоначально построен на берегу острова, в 1421 перенесен на более высокое место. В 1577 разорен шведами, в 1594 восстановлен, но в 1610 вновь разорен шведами. В связи с передачей Карелии Швеции долго не был восстановлен. Вновь открыт в 1718, ныне существующий ансамбль с каре келий и колокольней (1812) отстроен в камне в кон. XVIII - нач. XIX вв. В 1940 закрыт, во время оккупации вновь открыт, в 1944 закрыт окончательно. Весь остров долгое время использовался как полигон военно-морского флота, к 1980-м частью заброшен. Возвращен верующим в 1991.;;60.848075;30.584272
18196;Собор Рождества Пресвятой Богородицы в Коневском монастыре;церковь;1421;нет данных;действ.;Ленинградская обл., Приозерский р-н, о. Коневец;Кирпичный двухэтажный восьмистолпный пятикупольный собор с трёхчастным алтарём и трапезной, украшенный декором в духе позднего барокко. Построен в 1798-1809 вместо здания 1760-х, на месте храма кон. XVI в., в 1860-х расширен к западу пристройкой ризницы с башней. В нижнем этаже Сретенский храм (1802) с Коневским престолом (1830). Закрыт в 1940. В 1991 возвращён верующим, отреставрирован, службы преимущественно шли в нижнем храме. Главный престол освящён великим чином 7 июля 2019 Патриархом Кириллом.;"Рождества Пресвятой Богородицы; Сретения Господня";60.848187;30.584165
18198;Церковь Арсения Коневского в Коневском монастыре;церковь;1849;1813: Иларион – строительство по собств. проекту;действ.;Ленинградская обл., Приозерский р-н, о. Коневец;Домовый храм в братском корпусе, устроенный в 1849 в северо-восточной башне ограды на средства купца П. Пшеницына как больничный. Закрыт в 1940. В 2000-х отреставрирован, в 2007 освящён, используется как зимний.;Арсения Коневского;60.848858;30.584809
18197;Церковь Николая Чудотворца в Коневском монастыре;церковь;1719;1813-1815: Иларион – строительство по собств. проекту;действ.;Ленинградская обл., Приозерский р-н, о. Коневец;Домовый храм в братском корпусе. Устроен в юго-восточной башне ограды в 1813-1815. С 1930-х в помещении церкви находился монастырский музей. Освящен 19 дек. 2019.;Николая Чудотворца;60.847873;30.58549
18204;Коневский скит Коневского монастыря;монастырь;1876;: Слупский И. Б.;действ.;Ленинградская обл., Приозерский р-н, о. Коневец;Скит, построенный в юго-восточной части острова при архим. Израиле, на месте прежде бывшей часовни, отмечавшей место, где в 1398-1421 стояли постройки монастыря. Открыт в 1876. Состоит из церкви и келейных корпусов, окруженных оградой.;;60.839589;30.60345
18205;Церковь Иконы Божией Матери Коневская в Коневском скиту Коневского монастыря;церковь;1874;1874-1876: Слупский И. Б.;действ.;Ленинградская обл., Приозерский р-н, о. Коневец;Кирпичная однопрестольная церковь, построенная в 1874-1876. Пятиглавая постройка в псевдорусском стиле с шатровой колокольней. Архитектор И. Б. Слупский. В настоящее время восстанавливается общиной Софийского собора в Царском селе.;Иконы Божией Матери Коневская;60.839711;30.603412
18206;Часовня Арсения Коневского на Коневце;часовня;не позже 1815;нет данных;действ.;Ленинградская обл., Приозерский р-н, о. Коневец;Деревянная четвероугольная часовня, сооружённая в 1895 над издавна почитавшемся язычниками Конь-камнем - крупнейшим на острове гранитным валуном. Находится на северо-западном склоне Святой горы. Отремонтирована в 2000-х.;Арсения Коневского;60.857172;30.596192
18203;Часовня на Святой горе у Казанского скита;часовня;1740;нет данных;действ.;Ленинградская обл., Приозерский р-н, о. Коневец;Деревянная четверогранная одноглавая часовня, обшитая тесом. Построена на Святой горе, у Казанского скита, в память явления Божией Матери старцу Иоакиму. После войны сруб часовни перевезен к монастырю, использован в хозяйственных целях. В 1990-х возвращена на старое место.Вновь освященна в 2002.;;60.851856;30.598659
18199;Часовня Николая Чудотворца у Коневского монастыря;часовня;1815;нет данных;действ.;Ленинградская обл., Приозерский р-н, о. Коневец;Каменная часовня у монастырской пристани, построенная в 1815 при игум. Илларионе. Четверик под четырехскатной кровлей. В 1990-х отремонтирована.;Николая Чудотворца;60.847168;30.579889
18200;Часовня Успения Пресвятой Богородицы у Коневского монастыря;часовня;1899;нет данных;действ.;Ленинградская обл., Приозерский р-н, о. Коневец;Деревянная часовня в псевдорусском стиле, построенная в 1899, при архим. Пимене, чуть восточнее монастыря. Четверик, завершенный небольшим восьмериком с шатровым куполом. В 1990-х отреставрирована.;Успения Пресвятой Богородицы;60.849623;30.589996
9294;Собор Преображения Господня в Копорье;церковь;не позже XIV в.;;действ.;Ленинградская обл., Ломоносовский р-н, с. Копорье;Каменный храм, сооружённый из известняковой плиты во 2-й пол. XIV в. - нач. XV вв. в крепости Копорье. Первоначально - небольшая четырёхстолпная одноапсидная постройка. В 1612 частично разрушен, утрачены своды, восстановлен в нач. XVIII в., в 1756-1760 пристроена кирпичная трапезная. В 1854 выгорел, восстановлен в 1854-1856, сооружён деревянный купол, в 1913 построена новая колокольня. Закрыт в 1930-х, в 1962 выгорел, своды утрачены. Находился в руинированном состоянии, с 2000-х ведутся ремонтные работы. В настоящее время возведена временная кровля и созданы условия для проведения регулярных богослужений.;"Преображения Господня; Покрова Пресвятой Богородицы";59.708986;29.031732
10978;Церковь Николая Чудотворца в Копорье;церковь;1857;нет данных;сохр.;Ленинградская обл., Ломоносовский р-н, с. Копорье;Кирпичная одноглавая церковь в русско-византийском стиле. Сооружена в 1857-1861 как зимний храм рядом с деревянным Успенским. Колокольня пристроена в 1898-1899. Богослужения прекращены в 1920-х. В настоящее время заброшена, венчания утрачены.;Николая Чудотворца;59.710544;29.032005
24753;Церковь Иконы Божией Матери Всех Скорбящих Радость в Коробицыно;церковь;2000;2004-2007: Егоров А. П.;действ.;Ленинградская обл., Выборгский р-н, пос. Коробицыно;Кирпичная церковь, строящаяся с 2004. Одноглавый четверик, упрощённо воспроизводящий формы псковского зодчества, с асимметрично расположенным крыльцом. Богослужения начаты 6 нояб. 2007.;Иконы Божией Матери Всех Скорбящих Радость;60.519092;29.72738
8792;Церковь Николая Чудотворца в Котлах;церковь;не позже конца XV в.;;действ.;Ленинградская обл., Кингисеппский р-н, д. Котлы;Каменная церковь в русско-византийском стиле построена на средства прихожан по проекту архитектора Н. Н. Никонова. В 1937 закрыт, в период 1941-1942 село находилось на оккупированной немцами территории, в церкви размещались советские военнопленные. В 1943 открыта, вновь закрыта в 1959, в здании размещался сельский клуб. В 1991 возвращена верующим, восстановлена.;Николая Чудотворца;59.605387;28.757451
17058;Церковь Благовещения Пресвятой Богородицы у кладбища Красная Горка;церковь;2009;нет данных;действ.;Ленинградская обл., Всеволожский р-н, д. Красная Горка;"Кирпичная однокупольная одноапсидная церковь в русском стиле, заложенная в 2009 на кладбище ""Красная Горка"". В целом окончена, идет внутренняя отделка.";Благовещения Пресвятой Богородицы;59.9531;30.658937
21112;Церковь Петра и Павла в Красной Долине;церковь;1997;нет данных;действ.;Ленинградская обл., Выборгский р-н, пос. Красная Долина;Деревянная церковь, построенная в 2001-2002. Крестообразный в плане храм, завершенный восьмериком под шатровым куполом, с шатровой колокольней.;Петра и Павла;60.356745;28.990083
7619;Церковь Рождества Христова в Красноозерном;церковь;;нет данных;действ.;Ленинградская обл., Приозерский р-н, пос. Красноозерное;Небольшая деревянная церковь. Приписана к Коневской церкви в пос. Саперное.;Рождества Христова;60.585365;29.659127
21114;Церковь Иконы Божией Матери Тихвинская в Красносельском;церковь;2002;кон. 2000-х: Ершов Е. Н.;действ.;Ленинградская обл., Выборгский р-н, пос. Красносельское, ул. Советская, 19;Богослужения проводятся в приспособленном помещении с 2002, отдельная деревянная церковь выстроена в кон. 2000-х по образцу Преображенского храма в Лужках (Выборгский р-н). Четверик увенчан восьмериком, несущим высокий шатер, в основании которого поставлены четыре миниатюрные бочки. С севера и юга к церкви прирублены небольшие притворы, с востока алтарь, с запада трапезная.;Иконы Божией Матери Тихвинская;60.542303;29.489815
17490;Церковь Иконы Божией Матери Знамение в Красных Горах;церковь;не позже XVI в.;нет данных;действ.;Ленинградская обл., Лужский р-н, с. Красные Горы;Деревянная церковь, обшитая тесом, построенная в 1789 помещиком С. Я. Скобельцыным. Здание типа восьмерик на четверике с пятигранным алтарем, трапезной и невысокой колокольней, имелся придел Димитрия Солунского. Закрыта в 1937, венчания сломаны, служила клубом, общежитием. В 2004 возвращена верующим, отремонтирована с восстановлением утраченных частей.;"Иконы Божией Матери Знамение; Димитрия Солунского";58.946996;29.632742
11232;Церковь Фомы Апостола в Красном Бору;церковь;;2010-е: Коляда М. И. – реставрация;сохр.;Ленинградская обл., Подпорожский р-н, д. Красный Бор;Деревянная церковь, построенная в 1871-1873. Одноглавый четверик с небольшой трапезной и шатровой колокольней. Закрыта в 1932, до 1970-х здание было занято школой, затем пустовало. Восстанавливается с 2008. На 2022 законсервирована, к ремонту не приступали.;Фомы Апостола;61.057291;35.401366
20861;Церковь Параскевы (Пятницы) в Красном Бору;церковь;2001;нет данных;действ.;Ленинградская обл., Тосненский р-н, пос. Красный Бор, ул. Дубровского, 2;Небольшая деревянная церковь простой архитектуры. Одноглавый четверик с алтарем и притвором. Построена в 2001-2002, после постройки Покровского храма служит баптисерием.;Параскевы (Пятницы);59.680951;30.675809
20862;Церковь Покрова Пресвятой Богородицы в Красном Бору;церковь;2006;2006-2008: Крюков С. И.;действ.;Ленинградская обл., Тосненский р-н, пос. Красный Бор, ул. Дубровского, 2;Деревянная церковь, обложенная в нижней части кирпичном, сооруженная в 2006-2008. Пятиглавый четверик с пониженными боковыми притворами, алтарем и прямоугольной звонницей над алтарем.;Покрова Пресвятой Богородицы;59.680916;30.676345
13035;Троицкий Антониево-Дымский мужской монастырь;монастырь;кон. XII - нач. XIII в.;нет данных;действ.;Ленинградская обл., Бокситогорский р-н, д. Красный Броневик;Основан учеником Варлаама Хутынского преп. Антонием Дымским. Грамота на основание мужского монастыря в честь Антония Великого близ Дымского озера была пожалована князем Александром Невским. В Смутное время (1611) разорён, возобновлён в 1626. В 1692 был приписан к Новгородскому митрополичьему дому. Упразднён в 1764 с обращением собора в приходскую церковь. В 1794 возобновлён как Троицкий Антониев-Дымский монастырь. Закрыт в 1919 - нач. 1920-х. Возобновлён в 1997 как скит Тихвинского монастыря, богослужения проводились в домовой часовне странноприимного дома. Восстанавливается. В 2008 получил статус самостоятельного монастыря.;;59.574265;33.681722
13036;Собор Иконы Божией Матери Казанская в Троицком Антониево-Дымском монастыре;церковь;сер. XIII в. (?);нет данных;действ.;Ленинградская обл., Бокситогорский р-н, д. Красный Броневик;Первая церковь монастыря была деревянной и освящена в честь Антония Великого. Неоднократно перестраивалась. Каменная двухэтажная соборная церковь построена в 1655-1656 и освящена как Казанская с Антониевским и Никольским приделами. После возобновления монастыря (1791) строится колокольня и расширяется собор. В сер. XIX в. перестраивалась, переосвящены приделы верхнего этажа как Троицкий и Антония Дымского. Закрыта в 1930-х, в конце 1950-х здание разобрано, сохранилась лишь колокольня (отреставрирована в 2000). В 2005 начато восстановление собора.;"Иконы Божией Матери Казанская; Антония Великого; Антония Дымского; Николая Чудотворца; Троицы Живоначальной";59.573961;33.682537
13037;Церковь Антония Дымского в Троицком Антониево-Дымском монастыре;церковь;1997;нет данных;действ.;Ленинградская обл., Бокситогорский р-н, д. Красный Броневик;Трапезная церковь, перестроена из здания бывшего банно-прачечного комплекса.;Антония Дымского;59.574481;33.68114
