id;name;type;foundation_date;architect;status;address;short_description;dedications;lat;lon
;;;;;;;;;;
18772;Часовня Николая Чудотворца на 248-м км автодороги Р-105;часовня;1-я пол. 2000-х;нет данных;действ.;Рязанская обл., Касимовский р-н, ур. 248-й км автодороги Р-105 (1,5 км Ю с. Даньково);Кирпичный придорожный часовенный столб, сооружённый в 1-й пол. 2000-х на 248-м км автодороги Р-105 (Москва-Касимов) в память помощи, оказанной св. Николаем застрявшему водителю.;Николая Чудотворца;55.019860;41.255938
17331;Церковь Илии Пророка в Абакумово;церковь;не позже сер. XVII в.;нет данных;сохр.;Рязанская обл., Пронский р-н, д. Абакумово;Кирпичная одноглавая церковь с трапезной и колокольней, построена в русском эклектичном стиле вместо прежней деревянной (1725), того же посвящения. В советское время закрыта, разорена, частично руинирована.;Илии Пророка;54.254400;39.583000
14697;Церковь Рождества Пресвятой Богородицы в Абрютино;церковь;не позже кон. XVI в.;нет данных;действ.;Рязанская обл., Рязанский р-н, д. Абрютинские Выселки;Церковь, первоначально Димитриевская, известна с кон. XVI в. Последняя по времени Богородице-Рождественская деревянная церковь с приделом Димитрия Солунского выстроена в 1795. Хотя и обновлялось в 1876, но в связи с её ветхостью в 1893-1905 был построен новый одноимённый кирпичный крестообразный в плане однокупольный храм с приделами Иоанна Богослова и Димитрия Солунского. Закрыт в 1938, возвращён верующим в кон. 1990-х, реставрация продолжается. Ныне является подворьем Свято-Троицкого Рязанского мужского монастыря.;"Рождества Пресвятой Богородицы; Иоанна Богослова; Димитрия Солунского";54.540178;39.558197
13660;Церковь Сергия Радонежского (малая) в Агро-Пустыни;церковь;ок. 2001;нет данных;действ.;Рязанская обл., Рязанский р-н, с. Агро-Пустынь;Небольшая церковь, сооруженная к северу от старой в связи с невозможностью быстрого восстановления последней. Сооружена ок. 2001 как подворье Солотчинского монастыря, с 2004 приходская. Клетская одноглавая постройка с шатровой колокольней, позже обложенная кирпичом.;Сергия Радонежского;54.754700;39.784500
13659;Церковь Сергия Радонежского в Агро-Пустыни;церковь;не позже XVII в.;нет данных;действ.;Рязанская обл., Рязанский р-н, с. Агро-Пустынь;Огромная кирпичная церковь эклектичной архитектуры, выстроенная в 1884-1897 по инициативе прот. А. С. Арбекова. Кирпичный храм приземистых пропорций состоит из основного объема, увенчанного куполом, с боковыми притворами, обширной трапезной и колокольней. Главный престол был Покровский, приделы Сергиевский и Никольский. Закрыта не позже 1930-х, в 1941 снесена отдельно стоящая колокольня 1900-х. В 2000-х начат ремонт. В 2017 церковь освящена, в ней проводятся ежедневные службы.;"Сергия Радонежского; Николая Чудотворца; Покрова Пресвятой Богородицы";54.754200;39.784600
10621;Церковь Троицы Живоначальной в Акаево;церковь;не позже 2-й пол. XVIII в.;нет данных;действ.;Рязанская обл., Ермишинский р-н, д. Акаево;Ротондальный храм в стиле классицизма с двухпридельной трапезной и невысокой колокольней. Построен в 1809 на средства Е. И. Постельниковой. Первоначально Рождество-Богородицкий с приделами Василия Великого и Флора и Лавра. В 1995 возвращён верующим, освящен как Троицкий, ремонтируется.;"Троицы Живоначальной; Флора и Лавра; Василия Великого";54.730826;42.415284
18830;Часовня Михаила Архангела в Акулово;часовня;;нет данных;сохр.;Рязанская обл., Клепиковский р-н, д. Акулово;"Деревянная четверогранная ""входная"" часовня, обшитая тесом и перекрытая высокой четырехскатной кровлей с главкой. Деревня относилась к куршинскому приходу. В настоящее время пустует, в аварийном состоянии.";Михаила Архангела;54.927536;40.810432
24343;Церковь Николая Чудотворца в Аладьино;церковь;;нет данных;действ.;Рязанская обл., Чучковский р-н, с. Аладьино, ул. Советская, 43;Кирпичная церковь в формах классицизма, построенная в 1809 на средства Голицыных. Основной объем в виде неравногранного восьмерика перекрыт сводом с люкарнами, с востока к нему примыкает пятигранный алтарь, с запада небольшая трапезная. Закрыта не позже 1930-х, сломана колокольня. В 2000-х возвращена верующим, ремонтируется. С 2003 - редкие богослужения приезжими священниками. Регулярные богослужения с 2006.;Николая Чудотворца;54.278359;41.671806
24013;Церковь Александра Невского в Александро-Невском;церковь;нач. 2000-х;нет данных;действ.;Рязанская обл., Александро-Невский р-н, пос. Александро-Невский, ул. Заводская, 31;Деревянная церковь на кирпичном цокольном этаже. Приход зарегистрирован в 2002. Прямоугольный в плане одноглавый объем с боковыми прирубами и шатровой звонницей над притвором.;Александра Невского;53.478591;40.207107
26926;Церковь Иоанна Богослова в Альяшево;церковь;не позже 1676;нет данных;сохр.;Рязанская обл., Захаровский р-н, с. Альяшево, кладб.;Кирпичная двухпрестольная церковь построена к 1807 вместо прежней деревянной. Имела Никольский придел в трапезной. К перекрытому куполом одноглавому двусветному основному объёму с пилястрами на боковых фасадах примыкают полукруглая апсида и прямоугольная трапезная. Закрыта в сер. ХХ в., сохранилась в руинированном виде, трёхъярусная колокольня разобрана.;"Иоанна Богослова; Николая Чудотворца";54.547764;39.318848
17000;Церковь Воздвижения Честного Креста Господня в Аннино;церковь;не позже сер. XVII в.;нет данных;сохр.;Рязанская обл., Михайловский р-н, с. Аннино;Кирпичная церковь в стиле барокко, построена на средства местного владельца князя Н. П. Гагарина вместо прежней. Одноглавый восьмерик на четверике, трапезная и колокольня (не сохр.). Приделы: Никольский, Димитриевский, Богословский. Была приписана к Вознесенской церкви в Мишино. В советское время закрыта, сломаны завершения и колокольня. Ныне заброшена, находится в тяжелом состоянии.;"Воздвижения Честного Креста Господня; Иоанна Богослова; Николая Чудотворца; Димитрия, митрополита Ростовского";54.173641;39.308203
6437;Часовня в Апушке;часовня;;нет данных;действ.;Рязанская обл., Шацкий р-н, с. Апушка;;;;
14549;Церковь Иконы Божией Матери Владимирская в Ардабьево;церковь;не позже 2-й пол. XVII в.;нет данных;действ.;Рязанская обл., Касимовский р-н, с. Ардабьево;Кирпичная церковь в стиле зрелого классицизма. Построена в 1797 на средства помещика Вышеславцева. Основной объем в виде трехсветной ротонды, к которому примыкают полукруглый алтарь и двухпридельная трапезная со скругленными углами, к которой пристроена колокольня. Приделы Михаило-Архангельский и Никольский. Практически не закрывалась.;"Иконы Божией Матери Владимирская; Николая Чудотворца; Михаила Архангела";55.061492;41.660127
12937;Церковь Николая Чудотворца в Асниках;церковь;1698;нет данных;действ.;Рязанская обл., Захаровский р-н, с. Асники;Кирпичная церковь, близкая к образцовым проектам. Построена в 1896 (по другим данным в 1887-1893) на средства И. И. Величкина. Невысокий двусветный одноглавый четверик, трапезной соединенный с двухъярусной колокольней. Закрыта в 1941, в 1945 возвращена верующим и более не закрывалась.;Николая Чудотворца;54.274186;39.448721
12901;Казанский женский монастырь;монастырь;1786;нет данных;действ.;Рязанская обл., г. Рязань, ул. Фурманова, 56;Женский монастырь, перенесенный на восточную окраину города, к Вознесенской церкви, в 1786. До этого, в XVII-XVIII вв., постройки монастыря стояли в Кремле. К нач. ХХ в. - многолюдная обитель, занимавшая обширную территорию, обнесённую оградой. Закрыт в 1919, постройки заняты концлагерем, затем детдомом, позже переданы под жилье и другие нужды, часть территории застроена. Восстановлен в 2005 на части старой территории.;;54.631841;39.763234
12902;Собор Иконы Божией Матери Казанская в Казанском монастыре;церковь;ок. 1550;;действ.;Рязанская обл., г. Рязань, ул. Фурманова, 56;Кирпичный храм в псевдорусском стиле, сооружённый в 1870 купцом Н. П. Суворовой и игум. Евгенией по проекту, близкому к образцовым, на месте каменной Казанско-Вознесенской церкви кон. XVIII в. Двусветный четверик, завершённый купольным сводом с главкой, с обширной трапезной, также увенчанной главкой, в которой помещались Харалампиевский и Сергиевский приделы. После закрытия в 1919 занят под клуб, затем, с 1926 - рязанский областной архив. В 2006 возвращён верующим, отремонтирован.;"Иконы Божией Матери Казанская; Сергия Радонежского; Харалампия, епископа Магнезийского";54.632070;39.763384
12903;Церковь Варвары Великомученицы в Казанском монастыре;церковь;1803;нет данных;сохр.;Рязанская обл., г. Рязань, ул. Фурманова, 58;Кирпичная надвратная церковь-колокольня эклектичной архитектуры, сооружённая в 1870-1872 игум. Евгенией на месте храма 1803. На основном объёме в виде массивного двухъярусного четверика был поставлен восьмерик звона, увенчанный главкой. После закрытия занята под жилье, сильно перестроена.;Варвары Великомученицы;54.631537;39.762740
12904;Церковь Благовещения Пресвятой Богородицы;церковь;не позже нач. XVII в.;;действ.;Рязанская обл., г. Рязань, Затинная ул., 58;Кирпичная церковь, построенная в 1673. Бесстолпный пятиглавый четверик, вытянутый вдоль поперечной оси, с трапезной и невысокой шатровой колокольней. Придел Иоанна Воина устроен в трапезной в 1744. Закрыта в 1935, венчания сломаны, до 1990-х занята киноремонтной мастерской. В 1998 возвращена верующим, отреставрирована.;"Благовещения Пресвятой Богородицы; Иоанна Воина";54.634251;39.761463
12906;Церковь Вознесения Господня;церковь;1790 (?);1790-1794: Сулакадзев И. Г. (?);действ.;Рязанская обл., г. Рязань, ул. Вознесенская, 26;Кирпичная церковь, построенная в 1790-1794 в духе классицизма. Двусветный четверик, перекрытый высоким сводом с люкарнами и увенчанный главкой, с трапезной и колокольней. В трапезной, расширенной в 1833-1834, приделы Космодамианский и Трёхсвятский (1834). Закрыта в 1939, венчания сломаны. До 1990-х занята автошколой ДОСААФ, в 1992 возвращена верующим, отреставрирована.;"Вознесения Господня; Трех Святителей Великих; Космы и Дамиана";54.628600;39.760700
12905;Церковь Входа Господня в Иерусалим;церковь;ок. 1550;нет данных;действ.;Рязанская обл., г. Рязань, ул. Скоморошинская, 6;Кирпичная церковь, построенная в 1680. Бесстолпный пятиглавый четверик, вытянутый вдоль поперечной оси, с трапезной и невысокой шатровой колокольней. Имелись приделы Зачатия Предтечи и Михаила Архангела, в настоящее время освящён придел Иерусалимской Богоматери и сщмч. Иувеналия Рязанского. Закрыта в 1935, до 1990-х использовалась для нужд мебельной фабрики, но архитектурно не искажена. В 1992 возвращена верующим, отремонтирована.;"Входа Господня в Иерусалим; Иконы Божией Матери Иерусалимская; Иувеналия (Масловского), архиепископа Рязанского; Михаила Архангела; Зачатия Иоанна Предтечи";54.634914;39.758313
17898;Церковь Иконы Божией Матери Всех Скорбящих Радость на Скорбященском кладбище;церковь;1788;нет данных;действ.;Рязанская обл., г. Рязань, Колхозный пр., 1;Кирпичная церковь в стиле классицизма, построенная в 1807 на средства купца П. А. Мальшина. Четверик, завершенный ротондой, с полукруглым алтарем, боковыми портиками, трапезной и колокольней. В трапезной приделы Алексия, человека Божия, и Онуфрия Великого. Не закрывалась.;"Иконы Божией Матери Всех Скорбящих Радость; Онуфрия Великого; Алексия, человека Божия";54.611936;39.747928
13684;Церковь Космы и Дамиана при Вознесенской церкви;церковь;1999;нет данных;действ.;Рязанская обл., г. Рязань, ул. Вознесенская, 26;Крестильный храм при Вознесенской церкви. Освящен в 1999 (по другим данным ок. 2005) в кирпичном одноэтажном корпусе справа от церковных ворот, внешне выделен главкой.;Космы и Дамиана;54.628280;39.760509
18129;Церковь Николая Чудотворца Дворянская;церковь;не позже 3-й четв. XVII в.;нет данных;действ.;Рязанская обл., г. Рязань, ул. Николодворянская, 12;Кирпичная церковь, построенная в 1767. Здание типа восьмерик на четверике, завершавшееся высоким куполом, с пятигранным алтарем. Трапезная с Покровским и Петропавловским приделами перестроена во 2-й пол. XIX в., колокольня в стиле классицизма построена в 1805. Закрыта в кон. 1920-х, венчания сломаны. Была занята автотранспортным техникумом. Возвращена верующим в 2008, ремонтируется.;"Николая Чудотворца; Петра и Павла; Покрова Пресвятой Богородицы";54.630101;39.748543
12907;Церковь Николая Чудотворца Ямская;церковь;1788;нет данных;действ.;г. Рязань, ул. Циолковского, 8;Кирпичная церковь, сооружённая в 1788 и перестроенная в 1845. Высокий трёхсветный четверик, увенчанный пятиглавием, с обширной трапезной и трёхъярусной колокольней. Декор выдержан в духе классицизма, боковые фасады украшены невысокими портиками. В трапезной, перестроенной в 1837, помещались приделы Фрола и Лавра и мч. Мирона, над аркой в главный храм был устроен придел Григория Армянского (1862). Колокольня построена в 1822. Закрыта в 1935, венчания сломаны, перестроена под пивзавод. Возвращена верующим в 1996, отреставрирована.;"Николая Чудотворца; Григория Армянского; Флора и Лавра; Мирона Мученика";54.617661;39.757612
17386;Церковь Покрова Пресвятой Богородицы и Татианы Мученицы при Рязанском государственном университете;церковь;2001;2001-2002: Камышанов К. Е.;действ.;Рязанская обл., г. Рязань, ул. Свободы, 46;Домовый храм на территории Рязанского университета им. Есенина. Заложен 15 мая 2001, освящён 31 дек. 2002 митр. Симоном. Небольшая кирпичная постройка с шатровым куполом.;"Покрова Пресвятой Богородицы; Татианы Мученицы";54.629309;39.752005
17902;Церковь Успения Пресвятой Богородицы (старообрядческая);церковь;1904;1904: Бондаренко И. Е. (?);действ.;Рязанская обл., г. Рязань, Старообрядческий пр., 4;Кирпичная церковь окружнической общины, сооружённая в 1907-1910 на средства купцов Ф. И. Масленникова и Рябова. Здание типа восьмерик на четверике с шатровым куполом, небольшой трапезной и шатровой колокольней. Закрыта в 1937. В 1945 возвращена верующим, более не закрывалась. Первоначально Скорбященская, в 1980-х переосвящена в Успенскую.;Успения Пресвятой Богородицы;54.610761;39.750707
17899;Часовня Иконы Божией Матери Всех Скорбящих Радость на Скорбященском кладбище;часовня;;нет данных;сохр.;Рязанская обл., г. Рязань, Колхозный пр., 1;Кирпичная восьмигранная часовня в псевдорусском стиле, построенная у северных ворот Скорбященской церкви во 2-й пол. XIX в.;Иконы Божией Матери Всех Скорбящих Радость;54.612246;39.747821
12908;Часовня Иконы Божией Матери Живоносный Источник при церкви Николая Чудотворца;часовня;сер. XIX в.;нет данных;действ.;Рязанская обл., г. Рязань, ул. Циолковского, 8;Восьмигранная кирпичная часовня в юго-восточном углу ограды Николо-Ямской церкви. Была выстроена в сер. XIX в., после революции сломана. Заново выстроена в сер. 2000-х рядом с прежним местом.;Иконы Божией Матери Живоносный Источник;54.617139;39.757172
17900;Часовня Любови Рязанской на Скорбященском кладбище;часовня;1992;1992: Камышанов К. Е.;действ.;Рязанская обл., г. Рязань, Колхозный пр., 1;Часовня над могилой блаженной Любови Рязанской, с 1920-х почитавшейся горожанами и канонизированной в 1998. Построена в 1992. Небольшая кирпичная одноглавая постройка с трифолийными завершениями фасадов.;Любови Рязанской;54.612333;39.749548
22446;Часовня Любови Рязанской при Благовещенской церкви;часовня;2013;нет данных;действ.;Рязанская обл., г. Рязань, ул. Затинная, 58;Кирпичная часовня у Благовещенской церкви, рядом с местом дома, в котором проживала блаж. Любовь Рязанская. Сооружена в 2013-2014. Четверик, завершенный низким восьмериком с шатром, с притвором.;Любови Рязанской;54.634124;39.761018
17901;Часовня Николая Чудотворца (?) на Скорбященском кладбище;часовня;1885;нет данных;сохр.;Рязанская обл., г. Рязань, Колхозный пр., 1;Часовня-усыпальница над могилой помещика Н. Казначеева, сооруженная в 1885 его братом Т. Казначеевым. Пятиглавая кирпичная кубическая постройка. Заперта, поддерживается в порядке.;Николая Чудотворца;54.611470;39.748282
18774;Церковь Преображения Господня в Бабино-Булыгино;церковь;не позже 1626;нет данных;действ.;Рязанская обл., Касимовский р-н, с. Бабино-Булыгино;Кирпичная церковь, построенная в 1740, предположительно касимовским комиссаром Ф. С. Скорняковым. Двусветный четверик, завершенный малым восьмериком, с пятигранным алтарем, трапезной с северным Рождество-Богородицким приделом и невысокой колокольней, с декором в духе провинциального барокко. Главный престол первоначально Воскресенский, в 1788 переосвящен в Преображенский. Не закрывалась.;"Преображения Господня; Воскресения Христова; Рождества Пресвятой Богородицы";54.926500;41.333200
25590;Церковь Спиридона, епископа Тримифунтского, в Баграмово;церковь;2010;строится: Осышный С. В.;действ.;Рязанская обл., Рыбновский р-н, д. Баграмово;Каменный одноглавый однопрестольный храм в стиле русского узорочья сер. XVII в., с одноглавым пристроем с северной стороны, в котором расположена пономарка. Заложен 28 июня 2013 по проекту арх. Осышного С. В. Освящен 22 авг. 2020.;Спиридона, епископа Тримифунтского;54.723197;39.454762
25589;Церковь Спиридона, епископа Тримифунтского, в Баграмово (временная);церковь;2010;нет данных;действ.;Рязанская обл., Рыбновский р-н, д. Баграмово;Временный храм из быстровозводимых конструкций, заложенный 6 сент. 2010, и освященный в 2011.;Спиридона, епископа Тримифунтского;54.723479;39.454939
17836;Церковь Троицы Живоначальной в Байдиках;церковь;1690;нет данных;сохр.;Рязанская обл., Захаровский р-н, с. Байдики;Кирпичная церковь, в своей архитектуре сочетающая объёмные формы эпохи классицизма с эклектичным декором. Построена в 1877. Четверик, завершённый ротондой, с полукруглым алтарём, трапезной и колокольней. Придел Рождество-Богородицкий. Закрыта в 1940, колокольня сломана. Пустует.;"Троицы Живоначальной; Рождества Пресвятой Богородицы";54.345140;39.403811
10453;Церковь Воздвижения Честного Креста Господня в Балушевых-Починках;церковь;не позже 1-й трети XVII в.;нет данных;действ.;Рязанская обл., Касимовский р-н, с. Балушевы-Починки;Кирпичная церковь, построенная в 1869 в духе эклектики. Здание типа восьмерик на четверике с небольшой двухпридельной трапезной и высокой четырёхъярусной колокольней. Приделы Знаменский и Никольский. В настоящее время пустует, идет активное восстановление. Богослужения совершаются по выходным дням в освященном 20 июля 2019 Никольском приделе.;"Воздвижения Честного Креста Господня; Николая Чудотворца; Иконы Божией Матери Знамение";54.768300;41.621000
18832;Церковь Троицы Живоначальной в Барснево (новая);церковь;сер. 1970-х;нет данных;действ.;Рязанская обл., Клепиковский р-н, с. Барснево;Храм, устроенный в сер. 1970-х, после гибели в пожаре старой церкви, в деревянной церковной сторожке. Прямоугольная постройка, обшитая тесом. Внешне выделена главками.;Троицы Живоначальной;55.044352;40.552425
26799;Церковь Троицы Живоначальной в Бахмачеево;церковь;1752;нет данных;действ.;Рязанская обл., Рязанский р-н, с. Бахмачеево;Кирпичная однопрестольная церковь построена к 1888 в стиле эклектики тщанием священника Александра Соллерса и прихожан вместо деревянной, возведённой в 1838. К завершённому низким куполом и поставленным над ним световым барабаном с главой прямоугольному двусветному основному объёму примыкают апсида и трапезная с трёхъярусной колокольней. Закрыта в 1939 с целью использования под школу, вновь действовала в 1946-1964, затем обращена в клуб, позднее в склад, утратила главы. Передана епархии в 2003, освящена малым чином 9 мар. 2012. Ремонтируется.;Троицы Живоначальной;54.611172;39.387516
25592;Церковь Покрова Пресвятой Богородицы в Безлычном;церковь;Нач. 2010-х;нет данных;действ.;Рязанская обл., Захаровский р-н, д. Безлычное;Каменный одноглавый однопрестольный храм, устроенный в нач. 2010-х в приспособленнном здании.;Покрова Пресвятой Богородицы;54.438130;39.462146
18775;Часовня Матроны Анемнясевской в Бельково;часовня;2000-е;нет данных;действ.;Рязанская обл., Касимовский р-н, д. Бельково;Кирпичный часовенный столб.;Матроны Анемнясевской;55.011700;41.148432
19221;Церковь Благовещения Пресвятой Богородицы в Бельском;церковь;;нет данных;сохр.;Рязанская обл., Спасский р-н, с. Бельское;Деревянная церковь, обшитая тесом, с высокой трехъярусной колокольней, завершенной каркасным шатром. Построена в дальней деревне кидусалинского прихода, освящена в 1896. Закрыта не позже 1930-х, позже сам храм сломан. Уцелела только колокольня, сейчас находящаяся в аварийном состоянии.;"Благовещения Пресвятой Богородицы; Александра Невского";54.736100;40.354500
23984;Церковь Покрова Пресвятой Богородицы в Береговой Погореловке;церковь;сер. XVII в.;нет данных;сохр.;Рязанская обл., Пронский р-н, с. Береговая Погореловка;Кирпичная церковь, построенная в 1744 капитаном флота помещиком И. И. Бурцевым. Здание типа восьмерик на четверике с восьмериком, по высоте превосходящем четверик, с небольшой трапезной, в которой помещался Пятницкий придел, и колокольней. Закрыта не позже 1930-х, к 1990-м заброшена. С 2000-х ремонтируется.;"Покрова Пресвятой Богородицы; Параскевы (Пятницы)";54.090477;39.712429
24027;Церковь Успения Пресвятой Богородицы в Берёзово;церковь;1868;нет данных;действ.;Рязанская обл., Михайловский р-н, с. Березово;Церковь в селе, выселившемся из Печерников в 1860 и выделенном в отдельный приход в 1868. Кирпичный храм выстроен в 1907, Пятницкий придел освящен в 1912. Здание сооружено по образцовому проекту - четырехстолпный односветный объем с трехъярусной колокольней. Закрыта не позже 1930-х. В нач. 1990-х возвращена верующим, отремонтирована.;"Успения Пресвятой Богородицы; Параскевы (Пятницы)";54.091840;39.287122
10468;Церковь Иконы Божией Матери Казанская в Бетино;церковь;не позже сер. XVII века;нет данных;действ.;Рязанская обл., Касимовский р-н, с. Бетино;Каменная четырёхпрестольная церковь, построена вместо прежней деревянной Казанской церкви, пришедшей в ветхость. Приделы: холодный Никитский, тёплые Никольский и Троицкий. В советское время закрыта, разорена. Ныне восстановлена ротонда с главой, начаты регулярные богослужения.;"Иконы Божией Матери Казанская; Николая Чудотворца; Троицы Живоначальной; Никиты Великомученика";54.787300;41.480300
24208;Церковь Иконы Божией Матери Корсунская в Богородицком;церковь;;нет данных;действ.;Рязанская обл., Ухоловский р-н, с. Богородицкое;Кирпичная однопрестольная церковь, построенная в 1800 помещиком прапорщиком М. Н. Кормилицыным. Однокупольный четверик с полукруглым алтарем, небольшой трапезной и колокольней. Закрыта не позже 1930-х, венчания и колокольня сломаны, к 1990-м заброшена. Восстановление нач алось 22 окт. 2009, а 22 окт. 2016 храм был освящен малым чином.;Иконы Божией Матери Корсунская;53.550600;40.575410
7158;Церковь Иоанна Богослова в Богослово;церковь;рубеж XIX-XX вв.;нет данных;сохр.;Рязанская обл., Скопинский р-н, с. Богослово;Кирпичная церковь выстроена на средства прихожан в 1901 при бывшей помещичьей усадьбе Варыпаевых, принадлежавшей на тот период владельцу Богословского №2 винокуренного завода Н. П. Воронину. Закрыта в кон. 19З0-х, тогда же была сломана колокольня. В 1950-1960-х использовалась как сельский клуб. В настоящее время заброшена и разрушается.;Иоанна Богослова;53.902000;39.059000
8395;Церковь Богоявления Господня на Богоявленском Погосте;церковь;;нет данных;сохр.;Рязанская обл., Ермишинский р-н, ур. Богоявление (1,5 км ЮВ с. Большое Ляхово);;"Богоявления Господня; Покрова Пресвятой Богородицы; Николая Чудотворца";54.640521;42.136469
26539;Церковь Новомучеников и Исповедников Российских на Богоявленском Погосте;церковь;2018;нет данных;действ.;Рязанская обл., Ермишинский р-н, ур. Богоявление (1,5 км ЮВ с. Большое Ляхово);Деревянная одноглавая однопрестольная церковь, заложенная 24 июня 2018 на подворье Кадомского Богородице-Милостивского монастыря. Освящена 25 июля 2020 великим чином.;Новомучеников и Исповедников Российских;54.639980;42.133998
18833;Церковь Троицы Живоначальной в Болони;церковь;кон. 1990-х;нет данных;действ.;Рязанская обл., Клепиковский р-н, пос. Болонь, ул. Центральная, 11;Церковь устроена в помещении, выделенном в двухэтажном кирпичном здании 2-й пол. ХХ в., на коньке кровли которого поставлена небольшая главка.;Троицы Живоначальной;55.052613;40.085163
23805;Церковь Покрова Пресвятой Богородицы в Большой Алешне;церковь;1673;нет данных;действ.;Рязанская обл., Ряжский р-н, с. Большая Алешня;Кирпичная церковь стиля классицизма, построенная в 1805-1806 княгиней Е. А. Кропоткиной. Четверик, увенчанный крупной ротондой, с боковыми портиками, трапезной, в которой был Никольский придел, и колокольней. Главный престол первоначально Страстной Богоматери. Закрыта в 1930, трапезная и колокольня сломаны. Возвращена верующим в 1997, отремонтирована, освящена как Покровская.;"Покрова Пресвятой Богородицы; Иконы Божией Матери Страстная; Николая Чудотворца";53.639880;40.131977
26540;Часовня Новомучеников и Исповедников Российских в Большом Агишево;часовня;2012;нет данных;действ.;Рязанская обл., Сасовский р-н, с. Большое Алешино, ул. Центральная;Каменная одноглавая часовня - четверик под кровлей колпаком, заложенная 14 июля 2012. Приписана к Троицкому храму г. Шацка.;Рождества Христова;54.125328;41.732114
15626;Церковь Иконы Божией Матери Тихвинская в Большом Жоково;церковь;;нет данных;действ.;Рязанская обл., Рыбновский р-н, с. Большое Жоково;Кирпичная одноглавая однопрестольная церковь с ярусной колокольней. Построена как кладбищенская, приписная к Спасской церкви на Кобыльском Погосте. Очень низкий четверик, равный по высоте трапезной, перекрытый низким четырехгранным шатром. Трёхъярусная колокольня пристроена в 1878. В годы советской власти закрыта, руинирована. В настоящее время возвращена верующим, отремонтирована. В 2003 зарегистрировано Тихвинское подворье Покровского женского монастыря.;Иконы Божией Матери Тихвинская;54.572631;38.957391
6825;Церковь Иконы Божией Матери Казанская в Большом Самарино;церковь;1829;нет данных;действ.;Рязанская обл., Ряжский р-н, с. Большое Самарино;Выстроена в 1830-1835 тщанием Н. И. Самариной. Кирпичная однокупольная классицистическая церковь с широкой трапезной и квадратной колокольней. Приделы Иоанна Богослова и вмц. Варвары. В советское время закрывалась и использовалась как колхозный склад. Возвращена верующим в аварийном состоянии, ремонтируется.;"Иконы Божией Матери Казанская; Варвары Великомученицы; Иоанна Богослова";53.590067;40.041335
23982;Церковь Константина и Елены в Большом Селе;церковь;не позже XVI в.;нет данных;сохр.;Рязанская обл., Пронский р-н, с. Большое Село;Кирпичный храм, построенный в 1712 стольником И. С. Бурцевым. Здание типа восьмерик на четверике с богатым декором в нарышкинском стиле. Трапезная с приделами Михаило-Архангельский и Димитрия Ростовского (устроен в 1784) и трехъярусной колокольней сооружена вновь в 1784. Закрыта не позже 1930-х. Заброшена.;"Константина и Елены; Димитрия, митрополита Ростовского; Михаила Архангела";54.141048;39.733881
4238;Церковь Рождества Христова в Борце;церковь;;нет данных;действ.;Рязанская обл., Сараевский р-н, с. Борец;;Рождества Христова;53.801100;41.139000
19089;Церковь Введения Пресвятой Богородицы во Храм в Борисково;церковь;1899;нет данных;действ.;Рязанская обл., Рязанский р-н, с. Борисково;Деревянная церковь, обшитая тесом, с декором в стиле классицизма. Построена в 1899 в дальней деревне уржинского прихода. Здание типа восьмерик на четверике с пятигранным алтарем и протяженной трапезной, в которой был придел Иоакима и Анны. Закрыта в 1938. В сер. 1940-х возвращена верующим, более не закрывалась.;"Введения Пресвятой Богородицы во Храм; Иоакима и Анны";54.774300;40.208900
10512;Церковь Спаса Нерукотворного Образа в Борках;церковь;не позже 2-й пол. XVII в.;нет данных;действ.;Рязанская обл., Шиловский р-н, с. Борки;Кирпичная церковь в стиле классицизма, сооружённая в 1805-1811 на средства В. Т. Мельгуновой. Однокупольный храм с трапезной и колокольней. Трапезная с Успенским и Никольским приделами расширена в нач. 1870-х. Практически не закрывалась.;"Спаса Нерукотворного Образа; Николая Чудотворца; Успения Пресвятой Богородицы";54.620200;41.155400
9308;Церковь Рождества Христова в Букрино;церковь;не позже 1-й пол. XVII в.;2000-е: Тутунов А. С. – реставрация;действ.;Рязанская обл., Рязанский р-н, с. Букрино;;"Рождества Христова; Михаила Архангела; Троицы Живоначальной";54.343400;39.895800
18835;Церковь Иконы Божией Матери Казанская в Бусаево (новая);церковь;не позже сер. XIX в.;нет данных;действ.;Рязанская обл., Клепиковский р-н, с. Бусаево;Зимняя церковь прихода, вероятно, построенная в XIX в. и освящённая как Пятницкая. Закрыта в 1930-х, занята под склад, во 2-й пол. ХХ в. капитально перестроена под клуб. В 2002 возвращена верующим, освящена как Казанская. Литургии возобновлены в 2013. Представляет собой одноэтажное деревянное здание, обшитое вагонкой и увенчанное главкой.;"Иконы Божией Матери Казанская; Параскевы (Пятницы)";55.084070;40.399266
18834;Церковь Иконы Божией Матери Казанская в Бусаево (старая);церковь;не позже сер. XIX в.;нет данных;сохр.;Рязанская обл., Клепиковский р-н, с. Бусаево;Деревянная летняя церковь прихода с Аннинским приделом, построенная в 1846. Многоярусная кирпичная колокольня в псевдорусском стиле построена в нач. ХХ в. Закрыта в 1930-х, перестроена в школу, сгорела в 1985. Колокольня уцелела.;"Иконы Божией Матери Казанская; Анны Пророчицы";55.084328;40.399089
26797;Церковь Бориса и Глеба в Вакино;церковь;1784;;сохр.;Рязанская обл., Рыбновский р-н, с. Вакино, ул. Садовая;Кирпичная трёхпрестольная церковь построена в 1884-1890 в псевдорусском стиле тщанием священника К. Рясского вместо деревянной, возведённой в 1869 и сгоревшей в 1881. Между 1910 и 1914 устроены приделы Димитрия Ростовского и Софии Мученицы. К увенчанному мощным пятиглавием основному объёму примыкали апсида и трапезная с пятиярусной колокольней. Закрыта в сер. ХХ в., во 2-й пол. 1950-х разобраны основной объём и трапезная. Сохранилась колокольня.;"Бориса и Глеба; Софии Мученицы; Димитрия, митрополита Ростовского";54.873093;39.484240
19090;Церковь Иконы Божией Матери Неупиваемая Чаша в Варских;церковь;2001;нет данных;действ.;Рязанская обл., Рязанский р-н, пос. Варские;Церковь устроена в 2001 в части приспособленного кирпичного здания магазина, выделена главкой. Планируется постройка отдельного храма.;Иконы Божией Матери Неупиваемая Чаша;54.697700;39.867700
8413;Церковь Николая Чудотворца в Веретье;церковь;сер. XVII в.;нет данных;сохр.;Рязанская обл., Спасский р-н, с. Веретье;Кирпичная церковь с декором в духе классицизма, построенная в 1818-1825. Здание типа восьмерик на четверике с боковыми приделами. Один из приделов - Пятницкий. Закрыта не позже 1930-х, сломана колокольня. В настоящее время заброшена.;"Николая Чудотворца; Параскевы (Пятницы)";54.661000;40.484600
20161;Церковь Рождества Пресвятой Богородицы в Виленках;церковь;1799;нет данных;действ.;Рязанская обл., Михайловский р-н, с. Виленки;Кирпичная церковь в стиле позднего классицизма, оконченная постройкой в 1838. Однокупольный храм с боковыми портиками, трапезной и многоярусной колокольней в формах эклектики, сооруженной в 1867. Приделы Покровский и Михаило-Архангельский. Закрыта в 1940. В 1989 возвращена верующим, отреставрирована.;"Рождества Пресвятой Богородицы; Михаила Архангела; Покрова Пресвятой Богородицы";54.271090;38.922987
26919;Церковь Преображения Господня во Внуково;церковь;3-я четв. XVII в.;нет данных;сохр.;Рязанская обл., Михайловский р-н, с. Внуково;Каменная двухпрестольная церковь построена к 1797 в стиле классицизма на средства помещицы П. С. Кондыревой вместо прежней деревянной. Имела Скорбященский придел в трапезной. К завершённому цилиндрическим световым барабаном под высоким куполом с главкой прямоугольному основному объёму примыкают протяжённая апсида с полукруглой торцевой частью, невысокая трапезная и прямоугольная в плане трёхъярусная колокольня. Закрыта в сер. ХХ в., искажена устройством крупных проёмов в стенах, главки, кровля и боковые портики утрачены. Ныне бесхозна.;"Преображения Господня; Иконы Божией Матери Всех Скорбящих Радость";54.062224;38.839283
24000;Церковь Иконы Божией Матери Казанская в Воейково;церковь;кон. XVII - нач. XVIII вв.;нет данных;сохр.;Рязанская обл., Милославский р-н, с. Воейково;Кирпичная церковь в формах раннего классицизма, построенная в 1781 помещиком С. В. Муромцевым. Основной объем в виде неравногранного восьмерика перекрыт купольной кровлей с люкарнами. В 1836 к церкви на средства Н. С. Муромцева пристроена новая обширная трапезная в формах классицизма с Никольским и Митрофаниевским приделами, с парными колокольнями на западном фасаде. Закрыта не позже 1930-х. Долгое время пустовала, пришла в аварийное состояние. Консервационные работы идут с нач. 2010-х.;"Иконы Божией Матери Казанская; Митрофана, епископа Воронежского; Николая Чудотворца";53.441067;39.176690
18366;Церковь Рождества Пресвятой Богородицы в Воскресенке;церковь;не позже 1670-х;нет данных;сохр.;Рязанская обл., Пронский р-н, д. Воскресенка;Кирпичная церковь в формах раннего классицизма, судя по архитектуре относящаяся к 3-й четв. XVIII в. В литературе датируется 1747. Двусветный четверик, перекрытый купольным сводом с люкарнами, небольшой трапезной связанный с колокольней. Закрыта не позже 1930-х, пустует, в тяжелом состоянии.;Рождества Пресвятой Богородицы;54.229600;39.456900
14411;Церковь Рождества Пресвятой Богородицы в Вослебово;церковь;не позже кон. XVI в.;нет данных;действ.;Рязанская обл., Скопинский р-н, с. Вослебово;Кирпичная церковь в псевдорусском стиле, сооруженная в 1903 на основе здания 1801. Четверик, в настоящее время одноглавый, с боковыми притворами. Трапезная с Рождество-Богородицким и Никольским приделами и колокольня сооружены в 1870. Закрыта в 1940. Возвращена верующим в 1990-х, отремонтирована, освящена как Рождество-Богородицкая.;"Рождества Пресвятой Богородицы; Николая Чудотворца; Рождества Христова";53.836900;39.604000
10511;Церковь Иконы Божией Матери Казанская в Восходе;церковь;1-я пол. XVII в.;нет данных;действ.;Рязанская обл., Кадомский р-н, с. Восход;Деревянная Казанская церковь с Серафимовским и Никольским приделами, построенная в селе в 1904-1907, сломана в сер. ХХ в. Приход восстановлен в 1995,службы проходили в молитвенном доме, устроенном в приспособленном здании. Ныне существующая деревянная шатровая церковь с приделом Царственных Новомучеников заложена 2 февр. 2007, освящена 24 окт. 2009.;"Иконы Божией Матери Казанская; Николая Чудотворца; Царственных Страстотерпцев; Серафима Саровского";54.577100;42.119000
23810;Церковь Иоанна Богослова в Высоком;церковь;3-я четв. XVII в.;нет данных;действ.;Рязанская обл., Рязанский р-н, с. Высокое;Кирпичная церковь с декором в формах узорочья, сооруженная в 3-й четв. XVII в. в вотчине Богословского монастыря. Бесстолпный двусветный четверик, завершенный декоративным пятиглавием, с небольшой трапезной и шатровой колокольней. Закрыта в 1938. В 1990-х возвращена верующим, отремонтирована.;Иоанна Богослова;54.524976;39.417276
10853;Успенский Вышенский женский монастырь;монастырь;1625;нет данных;действ.;Рязанская обл., Шацкий р-н, п/о Выша;Монастырь основан как мужской в лесах у слияния Цны и Выши, на современное место переведён в 1625. Долгое время небогат и малолюден, начал развиваться в нач. XIX в. попечением строителя иером. Тихона, перешедшего сюда из Саровской пустыни. Большая часть построек, в т. ч. кельи и ограда выстроены в XIX в. Получил особую известность по жившему здесь в 1866-1894 в затворе еп. Феофану (Говорову), известному духовному писателю. Закрыт в 1920-х, занят лесхозом. С 1938 занят областной психбольницей. Восстановлен в 1990 на части территории как женский, но до кон. 1990-х сёстры жили вне монастыря. В настоящее время идет постепенный вывод больницы в новые корпуса.;;54.028279;42.104030
10854;Собор Иконы Божией Матери Казанская в Успенской Вышенской пустыни;церковь;1831;нет данных;действ.;Рязанская обл., Шацкий р-н, п/о Выша;Летний собор пустыни. Кирпичный четырёхстолпный пятикупольный храм в стиле классицизма с боковыми портиками из спаренных колонн. Сооружён в 1831-1844 при строителе иером. Тихоне (Сергееве) в честь главной монастырской святыни - Казанской иконы Богоматери. Боковые приделы Владимирский и Предтеченский. Закрыт в 1920-х. Долгое время занят складом, моргом. В 1990 возвращён верующим, в 2000-х отреставрирован, вновь открыт в 2009. 19 окт. 2025 освящен великим чином.;"Иконы Божией Матери Казанская; Рождества Иоанна Предтечи; Иконы Божией Матери Владимирская";54.027943;42.104349
10857;Собор Рождества Христова в Успенской Вышенской пустыни;церковь;1874;1874-1890: Юрьев М. Ф. – интерьеры, внутренний/внешний декор (иконостас );сохр.;Рязанская обл., Шацкий р-н, п/о Выша;Зимний монастырский собор, сооружённый в 1874-1890 при архим. Аркадии (Честонове). Кирпичный четырёхстолпный пятикупольный храм в стиле эклектики с боковыми четырёхколонными портиками. Второй престол Адриана и Наталии. С 1920-х приходской, закрыт в 1938, занят под склад. В 1990 возвращён верующим, ремонт, начатый в 1990-х, приостановлен, вновь начат в кон. 2000-х. Внешне собор выстроен. ведется внутренняя отделка.;"Рождества Христова; Адриана и Наталии";54.028700;42.104400
10858;Церковь Богоявления Господня в Успенской Вышенской пустыни;церковь;1872;нет данных;действ.;Рязанская обл., Шацкий р-н, п/о Выша;Домовый храм в затворе святителя Феофана, лично им устроенный в 1872 и после смерти святителя в 1894 упразднённый. В 2000 кирпичный корпус келий, где жил святитель, передан верующим. Корпус целиком и домовый храм отреставрированы, церковь освящена 28 июня 2010.;Богоявления Господня;54.027770;42.103700
10856;Церковь Успения Пресвятой Богородицы в Успенской Вышенской пустыни;церковь;не позже 2-й четв. XVII в.;нет данных;действ.;Рязанская обл., Шацкий р-н, п/о Выша;Первый каменный храм монастыря, сооружённый в 1761. Здание типа восьмерик на четверике с трапезной, с декором в духе провинциального барокко. Приделы Никольский и Сергиевский. Закрыта в 1920-х. В 1997 возвращена верующим, отремонтирована, в 1998 вновь освящена.;"Успения Пресвятой Богородицы; Сергия Радонежского; Николая Чудотворца";54.027872;42.103560
21148;Церковь Покрова Пресвятой Богородицы в Вышгороде;церковь;не позже 3-й четв. XVII в.;нет данных;действ.;Рязанская обл., Рязанский р-н, с. Вышгород;Кирпичная церковь, построенная в 1857 помещиком Г. Н. Рюминым. Двусветный четверик, завершенный купольной кровлей с главкой, с обширной трапезной, в которой находились Никольский и Преображенский приделы, и трехъярусной колокольней. Закрыта в 1939. Возвращена верующим в 1991, отремонтирована.;"Покрова Пресвятой Богородицы; Преображения Господня; Николая Чудотворца";54.520400;40.064400
19222;Церковь Введения Пресвятой Богородицы во Храм в Гавриловском;церковь;1793;нет данных;действ.;Рязанская обл., Спасский р-н, с. Гавриловское;Кирпичная церковь, построенная в духе образцовых проектов вместо сгоревшей в 1887 деревянной. Односветный четырехстолпный объем с декоративным пятиглавием над центральной частью, узкой трапезной и многоярусной колокольней. Приделы Преображенский и Александро-Невский. Закрыта в 1940. В 1999 возвращена верующим, ремонтируется.;"Введения Пресвятой Богородицы во Храм; Александра Невского; Преображения Господня";54.442100;40.383500
18776;Церковь Николая Чудотворца в Гиблицах;церковь;1844;нет данных;действ.;Рязанская обл., Касимовский р-н, с. Гиблицы;Кирпичная церковь в формах позднего классицизма, сооруженная в 1844 помещиком В. А. Бутурлиным. Однокупольный храм с двухпридельной трапезной и колокольней. В трапезной Покровский и Князь-Владимирский приделы. В 1930-х закрыта. В 1990-х возвращена верующим, отремонтирована.;"Николая Чудотворца; Покрова Пресвятой Богородицы; Владимира равноапостольного";54.965900;41.094000
18777;Часовня в Гиблицах;часовня;сер. XIX в.;нет данных;сохр.;Рязанская обл., Касимовский р-н, с. Гиблицы;Кирпичная часовня для выноса покойников, устроенная в башне в северо-западном углу ограды Никольской церкви. Деревянный второй этаж, надстроенный над часовней, занимала кладовая.;;54.965579;41.093388
23812;Церковь Димитрия Донского в Глебовом Городище;церковь;кон. 2000-х;нет данных;действ.;Рязанская обл., Рыбновский р-н, с. Глебово Городище;Деревянная церковь, перекрытая четырехскатной кровлей с главкой. Сооружена в кон. 2000-х для богослужений на время реставрации сельской церкви.;Димитрия Донского;54.635762;39.243991
23813;Церковь Успения Пресвятой Богородицы в Глебовом Городище;церковь;сер. XVII в.;1990-е: Варганов С. Г. – реставрация;сохр.;Рязанская обл., Рыбновский р-н, с. Глебово Городище;Кирпичная церковь с богатым декором в формах нарышкинского стиля, сооруженная в 1694 стольником П. Г. Вердеревским. Здание типа восьмерик на четверике с полукруглой апсидой и двухпридельной трапезной, расширенной в 1867. Приделы Димитрия Ростовского и Антония Римлянина. Закрыта не позже 1930-х, сломана колокольня. Долго пустовала, реставрируется с сер. 2000-х.;"Успения Пресвятой Богородицы; Антония Римлянина; Димитрия, митрополита Ростовского";54.635722;39.240730
26786;Церковь Воскресения Словущего в Глебово;церковь;1675;нет данных;сохр.;Рязанская обл., Путятинский р-н, с. Глебово, ул. Илюшина;"Кирпичная церковь построена к 1884 в стиле ампир на средства купцов М. Г. и М. Д. Поповых и И. Г. Потапова. Имела Казанский (освящён в 1884) и Никольский (освящён в 1907) приделы. К завершённому массивным световым купольным барабаном кубическому основному объёму примыкают полукруглая апсида и прямоугольная трапезная. Колокольня выстроена не была; колокола располагались на отдельно стоявшей звоннице простой формы. Закрыта в сер. ХХ в., использовалась под склад. Возвращена епархии, ведётся медленный ремонт.";"Воскресения Словущего; Николая Чудотворца; Иконы Божией Матери Казанская";54.138356;41.172248
21147;Церковь Рождества Пресвятой Богородицы в Глебово;церковь;1695;1880-е - 1908: Тон К. А.;действ.;Рязанская обл., Рязанский р-н, с. Глебово;Кирпичная церковь с декором в духе эклектики, построенная вместо сгоревшего в 1871 старого храма. Главный престол был освящен только в 1908. Четверик, вероятно, имевший декоративное завершение, с боковыми приделами и трапезной. Второй престол Никольский. Закрыта не позже 1930-х, венчания сломаны. Возвращена верующим в 2011. Регулярные богослужения с 2016.;"Рождества Пресвятой Богородицы; Николая Чудотворца";54.552298;39.947809
17324;Церковь Преображения Господня в Голдино;церковь;не позже 3-й четв. XVII в.;нет данных;действ.;Рязанская обл., Михайловский р-н, с. Голдино;"Первое упоминание о деревянной Преображенской церкви относится к 1676. Выстроенное в 1734 на средства местного помещика Г. М. Корабьина деревянное церковное здание сменил ныне существующий кирпичный храм. Приделы в трапезной: Казанский (1844), устроенный на средства А. П. Черкесова, и Митрофаньевский (1860), устроенный на средства П. В. Секерина (Сикерина). В 1880-х перестраивался (предположительно трапезная и колокольня). Храм представляет собой массивную одноглавую ротонду на кубическом четверике с прямоугольной апсидой; трапезная в одной связи с ярусной колокольней. В советское время закрыт, колокольня сломана. Ныне возвращён верующим, восстановлен, в 2000-х выстроена новая колокольня в упрощенных формах.";"Преображения Господня; Митрофана, епископа Воронежского; Иконы Божией Матери Казанская";54.119751;39.088853
24221;Церковь Николая Чудотворца в Голенищево;церковь;не позже нач. XVII в.;нет данных;сохр.;Рязанская обл., Чучковский р-н, с. Голенищево;Кирпичная однопрестольная церковь, построенная в 1909-1910 по инициативе о. Г. Кораблева. Здание типа восьмерик на четверике, в прошлом, вероятно, завершенное каркасным шатром, с боковыми притворами и небольшой трапезной. Закрыта не позже 1930-х, пустует.;Николая Чудотворца;54.132170;41.367559
14874;Церковь Димитрия Солунского в Горлово;церковь;1671;нет данных;сохр.;Рязанская обл., Скопинский р-н, с. Горлово;Кирпичная церковь, строившаяся с нач. XIX в. и оконченная в 1827. Обширная трапезная с Никольским и Трёхсвятским приделами сооружена в 1860-1862. Закрыта не позже 1930-х, венчания сломаны, частично разобран холодный храм. Заброшена.;"Димитрия Солунского; Трех Святителей Великих; Николая Чудотворца";53.828900;39.038000
19225;Часовня Рождества Пресвятой Богородицы в Городце;часовня;2009;нет данных;действ.;Рязанская обл., Спасский р-н, с. Городец;"Кирпичная кубическая ""входная"" часовня с главкой на четырехскатной кровле. Строилась с 2009 на месте разрушенной Рождественской церкви.Освящена 21 сент. 2014.";Рождества Пресвятой Богородицы;54.482380;40.453057
26798;Церковь Георгия Победоносца в Городище;церковь;не позже 1676;1890-1897: Цеханский И. С.;действ.;Рязанская обл., Рыбновский р-н, с. Городище, ул. Набережная, д. 95;Кирпичная однопрестольная церковь построена в 1890-1897 в русско-византийском стиле тщанием священника В. И. Витушина и прихожан на средства сторонних благотворителей вместо деревянной, возведённой в 1796. К завершённому световым восьмигранником с луковичной главой двусветному кубическому основному объёму примыкают гранёная апсида и трапезная с выстроенной до 1910 трёхъярусной колокольней. Закрыта в 1937, вновь открыта в 1942 и в дальнейшем не закрывалась.;Георгия Победоносца;54.706246;39.600481
10417;Церковь Троицы Живоначальной в Гусе-Железном;церковь;1766;;действ.;Рязанская обл., Касимовский р-н, пос. Гусь-Железный;Замечательный памятник романтизма рубежа XVIII-XIX вв. Большой двухэтажный однокупольный храм с лепестковым планом основного объёма и многоярусной колокольней. Строительство белокаменной церкви, начатое на средства А. Баташева в 1802, было приостановлено в 1825, продолжено только в 1847 и завершено в 1868. Внизу Христорождественский (1823), Никольский (1816) и Петропавловский (1818) престолы, вверху Троицкий. Закрыт не позже 1930-х. Возвращен верующим в нач. 1990-х, ремонтируется.;"Троицы Живоначальной; Николая Чудотворца; Петра и Павла; Рождества Христова";55.055670;41.160391
10307;Церковь Иконы Божией Матери Казанская в Данилово;церковь;;нет данных;сохр.;Рязанская обл., Ермишинский р-н, ур. Данилово (4 км В c. Торопово);Интересный образец стиля классицизма. Кирпичный храм сооружен в 1812 на средства князя А. А. Кильдишева. Церковь в виде крупной двусветной ротонды, перекрытой куполом с главкой, с боковыми двухколонными портиками и колокольней. Трапезная между храмом и колокольней встроена во 2-й пол. XIX в., приделы Богоявленский и Никольский. Закрыта не позже 1930-х, заброшена.;"Иконы Божией Матери Казанская; Николая Чудотворца; Богоявления Господня";54.609836;42.165171
10444;Церковь Рождества Христова в Даньково;церковь;не позже XVI в.;нет данных;действ.;Рязанская обл., Касимовский р-н, с. Даньково;Достаточно редкий для Рязанской области образец деревянного храма 2-й пол. XVIII в. Здание типа восьмерик на четверике с трапезной, в северном пристрое освящен Пятницкий придел. Двухъярусная колокольня выстроена вновь в 1863. В 1960-1980-х официально не действовал, но поддерживался в порядке, в 1990-х отремонтирован.;"Рождества Христова; Параскевы (Пятницы) Великомученицы";55.034215;41.255891
19226;Церковь Воскресения Словущего в Дегтяном;церковь;не позже XVI в.;нет данных;действ.;Рязанская обл., Спасский р-н, с. Дегтяное;Кирпичная церковь в духе образцовых проектов. Четырехстолпная трапезная с Никольским и Предтеченским приделами сооружена в 1902-1912. Основной объем заложен в 1912, но, возможно, не был достроен. Закрыта не позже 1930-х, колокольня и холодный храм сломаны. В 1999 возвращена верующим. В 2022 начались работы по восстановлению храма под руководством настоятеля о. Константина (Михайлова), художника по образованию.;"Воскресения Словущего; Иоанна Предтечи; Николая Чудотворца";54.434800;40.656800
24211;Церковь Николая Чудотворца в Демидово;церковь;;нет данных;сохр.;Рязанская обл., Шацкий р-н, с. Демидово;Кирпичная двухэтажная церковь в формах барокко, построенная в 1783 помещиком И. Шетневым. Здание выделяется оригинальной объемной композицией. К двусветному четверику, перекрытому высоким купольным сводом с люкарнами, примыкает равная ему по высоте двухэтажная трапезная, над западной частью которой поставлена колокольня. Второй престол Ильинский. Закрыта не позже 1930-х, пустует.;"Николая Чудотворца; Илии Пророка";54.194082;41.605818
19091;Церковь Рождества Пресвятой Богородицы в Деулино;церковь;2006;нет данных;действ.;Рязанская обл., Рязанский р-н, д. Деулино;Небольшая деревянная церковь, заложенная в 2006. Одноглавый четверик, трапезной связанный с двухъярусной колокольней под каркасным шатром.;Рождества Пресвятой Богородицы;54.826700;40.317400
32774;Церковь Михаила Архангела в Дмитриево;церковь;1856;1890-1901: Чистосердов Н. М.;сохр.;Рязанская обл., Скопинский р-н, с. Дмитриево, ул. Заречная, у д. 3;"Кирпичная, спроектированная как трёхпрестольная церковь строилась на средства благочинного священника И. Архангельского и прихожан с 1890-х вместо прежней деревянной (1858) по проекту 1889 арх. Н. М. Чистосердова в память спасения Александра III и его семьи при крушении поезда 17 окт. 1888. К 1901 выстроены обширная отапливаемая трапезная с одним Никольским приделом и четырёхъярусная колокольня; придел освящён 17 мар. 1901. Основной объём с главным престолом Михаила Архангела достроен не был. Службы прекращены в 1939, официально закрыта не ранее 1941. Значительно повреждена, колокольня разрушена. Начато восстановление.";"Михаила Архангела; Николая Чудотворца";53.858663;39.091255
9986;;;;;;;;;;
9987;Собор Димитрия Солунского в Дмитриевом Ряжском монастыре;церковь;не позже XVI в.;нет данных;действ.;Рязанская обл., Скопинский р-н, с. Дмитриево;Кирпичный летний монастырский храм, выстроенный в период 1752-1763 и частично перестроенный в 1829. Трёхсветный одноглавый одноапсидный четверик с небольшой трапезной. К 1970-м заброшен. Возвращен верующим в 1993, отремонтирован.;Димитрия Солунского;53.748100;39.605100
9988;Церковь Сергия Радонежского в Дмитриевом Ряжском монастыре;церковь;не позже 1-й пол. XVIII в.;нет данных;действ.;Рязанская обл., Скопинский р-н, с. Дмитриево;Кирпичный зимний храм, построенный к югу от Дмитриевского собора в 1770 на средства А. Ф. Кареева. Расширен в 1863. Приземистый одноглавый четверик, перекрытый купольным сводом, с трапезной. Приделы Константино-Еленинский и Скорбященский. К 1970-м заброшен, в аварийном состоянии. Возвращен верующим в 1990-х, в 2000-х отремонтирован в упрощенных формах, освящен в 2009.;"Сергия Радонежского; Константина и Елены; Иконы Божией Матери Всех Скорбящих Радость";53.747800;39.605200
18837;Церковь Димитрия Донского в Дмитриево;церковь;2000;нет данных;действ.;Рязанская обл., Клепиковский р-н, д. Дмитриево;Небольшая деревянная церковь, заложенная в 2000 и построенная на средства благотворителей. Одноглавый четверик с прямоугольными алтарем и притвором, с звонницей над притвором. Освящена 30 сент. 2018.;Димитрия Донского;54.980700;40.813800
14753;Церковь Успения Пресвятой Богородицы в Дмитриево;церковь;не позже 3-й четв. XVII в.;нет данных;сохр.;Рязанская обл., Касимовский р-н, с. Дмитриево;Кирпичная церковь в стиле классицизма, построенная в 1799 на средства А. И. Свищова. Прямоугольный объём, завершавшийся куполом, с боковыми портиками. Боковые приделы Ильинский и Зосимо-Савватиевский. Трёхъярусная колокольня пристроена в кон. XIX - нач. ХХ вв. Закрыта не позже 1930-х, сломан купол. В 1999 возвращена верующим, ремонтируется.;"Успения Пресвятой Богородицы; Зосимы и Савватия Соловецких; Илии Пророка";55.063500;41.587000
26927;;;;;;;;;;
18778;Часовня в Дуброво;часовня;;нет данных;действ.;Рязанская обл., Касимовский р-н, д. Дуброво;"Деревянная четверогранная ""входная"" часовня, обшитая вертикальным тесом. Входила в ибердусский приход.";;54.928030;41.001492
21146;Церковь Илии Пророка в Дядьково;церковь;2006;нет данных;действ.;Рязанская обл., Рязанский р-н, с. Дядьково;Кирпичная церковь простой архитектуры, начатая постройкой в 2008. Одноглавый четверик с пятигранным алтарем и шатровой звонницей над крыльцом.;Илии Пророка;54.614649;39.850443
6110;;;;;;;;;;
25176;Церковь Успения Пресвятой Богородицы в Екимовке;церковь;не позже нач. XVII в.;нет данных;действ.;Рязанская обл., Рязанский р-н, с. Екимовка;Каменная двухэтажная церковь с приделом Креста Господня в нижнем этаже построена на средства местного помещика В. В. Измайлова вместо прежней церкви того же посвящения, пришедшей в ветхость. Первая Успенская церковь была приписана с Спасской церкви в Калитинках, в 1699 открыт самостоятельный приход. Церковь закрыта в 1936, в здании размещён склад зерна. В настоящее время возвращена верующим, ремонтируется.;"Успения Пресвятой Богородицы; Креста Господня";54.478922;39.607949
18840;Церковь Преображения Господня в Екшуре (новая);церковь;2002;нет данных;действ.;Рязанская обл., Клепиковский р-н, с. Екшур;Церковь устроена в приспособленном одноэтажном деревянном здании бывшего магазина, переданном верующим в 2002.;Преображения Господня;55.110194;40.218716
14453;Церковь Вознесения Господня в Елатьме;церковь;не позже 1-й пол. XVIII в.;нет данных;действ.;Рязанская обл., Касимовский р-н, пос. Елатьма, ул. Володарского;Кирпичная церковь, построенная в 1797 купцами Виноходовыми. Двусветный одноглавый четверик с трапезной и трехъярусной колокольней в стиле классицизма. Приделы Феодоровской Богоматери и Петропавловский. Закрыта не позже 1930-х. В тяжелом состоянии, медленно восстанавливается, но богослужения ежедневные.;"Вознесения Господня; Петра и Павла; Иконы Божией Матери Феодоровская";54.954500;41.754000
14457;Церковь Всех Святых в Елатьме;церковь;кон. XVIII в.;нет данных;действ.;Рязанская обл., Касимовский р-н, пос. Елатьма, кладбище;Кирпичная кладбищенская церковь в стиле классицизма, построенная в 1825 (по другим данным в 1838). Здание типа восьмерик на четверике с боковыми портиками, небольшой трапезной и колокольней. Приделы Предтеченский и Сергиевский. Была приписана к Преображенскому собору. Закрыта в 1941, к 1980-м заброшена. В 1990-х возвращена верующим, отремонтирована.;"Всех Святых; Сергия Радонежского; Иоанна Предтечи";54.966300;41.737400
14459;Церковь Илии Пророка в Елатьме;церковь;не позже 1-й пол. XVIII в.;нет данных;сохр.;Рязанская обл., Касимовский р-н, пос. Елатьма, пл. Грибкова;Кирпичная церковь, сооруженная в 1747-1751 купцами Пышкиным и Каржевиным. Трехсветный пятиглавый одноапсидный четверик с декором в духе нарышкинского стиля, с двухпридельной трапезной и колокольней, перестроенной во 2-й пол. XIX в. Главный престол Усекновения Предтечи, приделы в трапезной Ильинский и Пятницкий. Закрыта не позже 1930-х, венчания сломаны, использовалась как водонапорка. В 1970-х сломаны алтарь и трапезная, рухнули своды четверика. Заброшена.;"Илии Пророка; Параскевы (Пятницы); Усекновения главы Иоанна Предтечи";54.962800;41.754200
14460;Церковь Иоанна Богослова при Елатомской гимназии;церковь;1901;нет данных;сохр.;Рязанская обл., Касимовский р-н, пос. Елатьма, ул. Луначарского, 48;Домовая церковь при Елатомской гимназии, открытой в 1873. Двухэтажная церковная пристройка, внешне выделявшаяся крестом, сооружена в 1901. Закрыта вскоре после революции. В настоящее время в здании средняя школа, церковная пристройка, занятая актовым залом, хорошо заметна.;Иоанна Богослова;;
14461;Церковь Покрова Пресвятой Богородицы в Елатьме;церковь;не позже 1-й пол. XVIII в.;нет данных;сохр.;Рязанская обл., Касимовский р-н, пос. Елатьма, ул. Свердлова, у д. 18;Кирпичная церковь с декором в духе барокко, выстроенная в 1773. Двусветный четверик, перекрытый купольным сводом с главкой, с небольшой трапезной и шатровой колокольней, интересной эклектичным декором. Главный престол Воскресенский, приделы Покровский и Знаменский. Закрыта не позже 1930-х, использовалась в хозяйственных целях, позже заброшена.;"Покрова Пресвятой Богородицы; Иконы Божией Матери Знамение; Воскресения Словущего";54.975400;41.755200
14456;;;;;;;;;;
14458;Церковь Троицы Живоначальной в Елатьме;церковь;не позже 1-й пол. XVII в.;нет данных;действ.;Рязанская обл., Касимовский р-н, пос. Елатьма, угол Пролетарской ул. и пл. Грибкова;Кирпичная церковь, судя по архитектуре, сооруженная в 1-й пол. XVIII в. Двусветный одноглавый одноапсидный четверик с двухпридельной трапезной и невысокой колокольней в стиле классицизма. Приделы Боголюбовский и Варваринский. В декоре использованы мотивы зодчества кон. XVII в. Закрыта не позже 1930-х, венчания сломаны, занята под электростанцию и др. нужды. В 2000-х возвращена верующим, ремонтируется.;"Троицы Живоначальной; Варвары Великомученицы; Иконы Божией Матери Боголюбская";54.962600;41.751000
17837;Церковь Троицы Живоначальной в Елино;церковь;1845;нет данных;сохр.;Рязанская обл., Захаровский р-н, с. Елино;Кирпичный храм, построенный в духе образцовых проектов в 1901. Односветная четырехстолпная постройка, вероятно, завершавшаяся декоративным пятиглавием, с колокольней. Второй престол Никольский. Закрыта в 1939, венчания сломаны. Пустует, часть сводов рухнула.;"Троицы Живоначальной; Николая Чудотворца";54.413700;39.383500
17001;Церковь Воздвижения Честного Креста Господня в Елшино;церковь;1759;нет данных;сохр.;Рязанская обл., Пронский р-н, д. Елшино;Кирпичная двухпрестольная церковь построена на средства прихожан вместо прежней Казанской церкви. Одноглавая ротонда на четверике, обширная трапезная в одной связи с ярусной колокольней, завершающейся ротондальным ярусом. Придел Казанский. В советское время закрыта, разорена, сломаны завершения. Ныне заброшена, разрушается.;Воздвижения Честного Креста Господня;54.172000;39.595300
10281;Церковь Благовещения Пресвятой Богородицы в Енкаево;церковь;не позже XVIII в.;нет данных;сохр.;Рязанская обл., Кадомский р-н, с. Енкаево;Кирпичная церковь в духе провинциального классицизма, построенная в 1798 помещиком Нестеровым. Двусветный четверик с боковыми портиками, завершенный небольшим четверогранным световым барабаном, с трапезной с Никольским приделом и трехъярусной колокольней. Закрыта не позже 1930-х. Заброшена, в тяжелом состоянии.;"Благовещения Пресвятой Богородицы; Николая Чудотворца";54.664200;42.436600
10442;Церковь Николая Чудотворца в Ерахтуре;церковь;не позже XVI в.;нет данных;сохр.;Рязанская обл., Шиловский р-н, с. Ерахтур;Большой деревянный храм с трапезной, сооружённый в 1782 и отремонтированный в 1885. Закрыт не позже 1930-х, венчания сломаны, использовался как магазин. Возвращён верующим в 1989, но реставрационные работы еще не проводились.;Николая Чудотворца;;
10441;;;;;;;;;;
14752;Церковь Успения Пресвятой Богородицы в Ермолово;церковь;;нет данных;действ.;Рязанская обл., Касимовский р-н, с. Ермолово;Кирпичная церковь в стиле зрелого классицизма, выстроенная на средства А. Р. Баташева в 1795. Двусветный четверик, завершённый главкой, небольшой трапезной с вогнутыми внутрь углами связанный с невысокой колокольней. Второй престол Усекновения Предтечи. В 1990-х возвращена верующим, отремонтирована. В 2008-2014 проведена серьезная реставрация.;"Успения Пресвятой Богородицы; Усекновения Главы Иоанна Предтечи";54.916700;41.706200
12945;Церковь Димитрия Солунского в Жмурово;церковь;1861;нет данных;сохр.;Рязанская обл., Михайловский р-н, с. Жмурово;Кирпичная церковь, построенная по проекту, близкому к образцовым вместо сгоревшей церкви села Дмитриевского. Вознесенский придел в трапезной освящен в 1870, главный храм окончен после 1884. Двусветный четверик, вероятно, завершавшийся декоративным пятиглавием, с обширной трапезной и колокольней. Закрыта не позже 1930-х, венчания сломаны. Пустует.;"Димитрия Солунского; Вознесения Господня";53.966600;38.904100
12938;Церковь Иоанна Богослова в Жокино;церковь;1788;нет данных;действ.;Рязанская обл., Захаровский р-н, с. Жокино;Обширная кирпичная церковь, сооруженная в 1856-1870. Четверик холодного храма увенчан крупным световым восьмериком, завершенным декоративными закомарами и главкой. Протяженной трапезной с Никольским и Сергиевским приделами церковь соединена с грандиозной колокольней, увенчанной шатром сложной формы. Закрыта в 1940. В 2001 возвращена верующим, ремонтируется.;"Иоанна Богослова; Сергия Радонежского; Николая Чудотворца";54.327300;39.195400
