id;name;type;foundation_date;architect;status;address;short_description;dedications;lat;lon
;;;;;;;;;;
15974;Церковь Михаила Архангела в Абакумлево;церковь;не позже XVI в.;нет данных;сохр.;Владимирская обл., Суздальский р-н, д. Абакумлево;Кирпичная зимняя церковь, построенная в 1758 на средства прихожан, монастырских крестьян. Четверик храма был перекрыт двускатной кровлей с главкой, с востока к нему примыкает алтарь, с запада трапезная с шатровой колокольней. К настоящему времени в аварийном состоянии, своды трапезной рухнули, колокольня сломана.;Михаила Архангела;56.404100;40.549400
15973;Церковь Троицы Живоначальной в Абакумлево;церковь;не позже XVI в.;нет данных;действ.;Владимирская обл., Суздальский р-н, д. Абакумлево;Кирпичная летняя церковь, построенная в 1778 на средства прихожан, экономических крестьян. Двусветный одноглавый одноапсидный четверик с декором в духе зодчества XVII в. и поясом мелких кокошников под карнизом. Закрыта не позже 1930-х, позже сломан притвор. В кон. 2000-х отремонтирована.;Троицы Живоначальной;56.403770;40.550000
32209;Часовня Довмонта Псковского на Аббакумовском кладбище;часовня;2023;нет данных;действ.;Владимирская обл., Петушинский р-н, ур. Аббакумовское кладб.;Кирпичная одноглавая часовня в духе владимирского зодчества, заложенная 22 июля 2023 в память военнослужащих, погибших на СВО. Строилась по инициативе супругов Шишлаковых, в 2022 потерявших сына Тимофея. Освящена 27 сент. 2024. Приписана к Крестовоздвиженскому приходу в Костерево.;Довмонта Псковского;55.916881;39.680795
28038;Часовня в Абросимово;часовня;;нет данных;сохр.;Владимирская обл., Камешковский р-н, д. Абросимово, у д. 4;Небольшой кирпичный часовенный столп с четырьмя нишами-киотами на гранях. Имеет четырёхскатное покрытие с маленькой луковичной главкой. Венчающий крест не сохранился.;;56.423053;41.065317
28039;Часовня Преображения Господня (?) в Абросимово;часовня;;нет данных;действ.;Владимирская обл., Камешковский р-н, д. Абросимово, у д. 40;Кирпичная часовня-столп, выделяющаяся оригинальным высоким яйцевидным восьмидольным покрытием с главкой. На каждой из четырёх граней постройки, имеющих килевидные завершения, расположены ниши-киоты. Отремонтирована ок. 1990, затем повторно в 2022.;Преображения Господня;56.422441;41.061664
9003;Часовня в Абросово;часовня;;нет данных;действ.;Владимирская обл., Петушинский р-н, д. Абросово;Деревянная часовня. Два убывающих четверика с имитацией щипцового завершения. В советское время закрыта, заброшена. В начале 2000-х восстановлена по инициативе и на средства жителей деревни. Освящена 2 августа 2013, приписана к Тихвинской церкви в Иваново.;;56.060915;39.248412
27984;Церковь Иконы Божией Матери Казанская в Акиньшино;церковь;не позже 1-й четв. XVII в.;нет данных;действ.;Владимирская обл., Вязниковский р-н, ур. Акиньшино (1,5 км СЗ д. Черноморье);Каменная двухпрестольная церковь построена в 1816-1818 вместо предшествующей деревянной (1730-е). В трапезной Покровский придел. Одноглавый восьмерик на четверике трапезной связан с трёхъярусной колокольней увенчанной шпилем. Закрыта в 1932, приспособлена под склад. Восстановлена в 2000-х, после образования в 2001 на базе храма Казанского скита Богоявленского Мстёрского мужского монастыря.;"Иконы Божией Матери Казанская; Покрова Пресвятой Богородицы";56.357235;41.865718
29751;Церковь Николая Чудотворца в Алачино;церковь;не позже нач. XVII в.;нет данных;действ.;Владимирская обл., Ковровский р-н, с. Алачино;Кирпичная церковь, сооружённая в 1807-1810 взамен ветхой деревянной усердием помещика Г. М. Бабкина в память о старшем брате Василии (1780-1807), погибшем в сражении с французами при Прейсиш-Эйлау. Однокупольный двусветный четверик с апсидой, трапезной и восьмигранной столпообразной колокольней с шатровым завершением, всё здание полностью лишено декора. Имелся тёплый придел Владимирской Богоматери. Закрыта в янв. 1941, разорена. Восстанавливается с нач. 2010-х, приписана к церкви Всех Святых в Мелехово.;"Николая Чудотворца; Иконы Божией Матери Владимирская";56.225387;41.161953
1259;Успенский Александровский женский монастырь;монастырь;1651;1752-1753: Алексеев Я. А. – реставрация;действ.;Владимирская обл., г. Александров, ул. Советская, 23-25;Основан в 1651 прп. Лукианом на территории бывшей великокняжеской, а затем царской резиденции Александрова Слобода. Пользовался покровительством царской семьи. Уцелели стены кон. XVII в. и келейные корпуса XVII-XIX вв. Закрыт в 1923, открыт в 1991. На части территории действует историко-архитектурный музей-заповедник.;;56.400600;38.740500
1260;Собор Троицы Живоначальной в Успенском Александровском монастыре;церковь;не позже 1513;;действ.;Владимирская обл., г. Александров, ул. Советская, 23-25;Построен Василием III. Также имеется версия о постройке собора в 3-й четв. XVI в. Одноглавый четырёхстолпный собор (по образцу Троицкого собора Троице-Сергиева монастыря) окружён галереями 3-й четв. XVII в., в которых помещены Симеоновский (справа, упразднен) и Сергиевский (слева) приделы. До реконструкции 1660-х - Покровский собор. Перестраивался в XIX в., отреставрирован в сер. ХХ в. Закрыт в 1920-х, вновь открыт в 1946.;"Троицы Живоначальной; Симеона Богоприимца; Сергия Радонежского";56.400530;38.739460
1261;Церковь Покрова Пресвятой Богородицы в Успенском Александровском монастыре;церковь;не позже 3-й четв. XVI в.;1509-1513: Алевиз Новый (?);сохр.;Владимирская обл., г. Александров, ул. Советская, 23-25;Небольшой бесстолпный шатровый храм на подклете. Имеется версия о его постройке в 1-й четв. XVI в. При реконструкции в 1680-х пристроены обширная трапезная и шатровая колокольня, храм из Троицкого переосвящён в Покровский. Закрыт в 1920-х, занят музейной экспозицией.;Покрова Пресвятой Богородицы;56.400960;38.740580
1263;Церковь Распятия Христова в Успенском Александровском монастыре;церковь;не позже 1-й трети XVI в.;1509-1513: Алевиз Новый (?);сохр.;Владимирская обл., г. Александров, ул. Советская, 23-25;"Первоначальная трёхъярусная восьмигранная церковь ""под колоколы"" обстроена галереей и надстроена ярусом звона под шатром в 1570-х. Храм размещён во 2-м ярусе, до кон. XVII в. Алексеевский. В настоящее время используется музеем.";Распятия Христова;56.400100;38.739860
1265;Церковь Сретения Господня в Успенском Александровском монастыре;церковь;ок. 1680;нет данных;действ.;Владимирская обл., г. Александров, ул. Советская, 23-25;Малый храм при монастырских больничных кельях. Под церковью склеп с могилами сводных сестер Петра I царевен Марфы и Феодосии. С 1994 нерегулярно проводятся богослужения.;Сретения Господня;56.400380;38.742060
1262;Церковь Успения Пресвятой Богородицы в Успенском Александровском монастыре;церковь;не позже 3-й четв. XVI в.;1754: Алексеев Я. А. – реставрация;сохр.;Владимирская обл., г. Александров, ул. Советская, 23-25;Бесстолпный храм на подклете, имеется версия о его постройке в 1-й четв. XVI в. При реконструкции в 1663-1667 разобраны боковые галереи, храм увенчан декоративным пятиглавием, пристроены боковые приделы (слева Никольский, справа Марии Египетской), выстроены трапезная и колокольня (в 1670-х). Закрыт в 1920-х, занят музейной экспозицией.;"Успения Пресвятой Богородицы; Марии Египетской; Николая Чудотворца";56.400060;38.741900
1264;Церковь Феодора Стратилата в Успенском Александровском монастыре;церковь;1682;нет данных;действ.;Владимирская обл., г. Александров, ул. Советская, 23-25;Небольшой храм над Святыми воротами монастыря, выстроенный на средства царя Феодора Алексеевича. С 1992 нерегулярно проводятся богослужения.;Феодора Стратилата;56.400230;38.738400
1266;Часовня надкладезная в Успенском Александровском монастыре;часовня;XVIII в.;нет данных;сохр.;Владимирская обл., г. Александров, ул. Советская, 23-25;Небольшая восьмигранная постройка под куполообразной кровлей над колодцем. Принадлежит музею-заповеднику.;;56.400260;38.741000
1253;Собор Рождества Христова в Александрове;церковь;не позже XVI в.;;действ.;Владимирская обл., Александровский р-н, г. Александров, Советский пер., 11;Небольшой храм был капитально перестроен в псевдорусском стиле в 1847 на средства купца И. Баранова. В трапезной Никольский и Михаило-Архангельский приделы. Колокольня 1825 не сохранилась. Закрыт в 1929, открыт в 1990, реставрируется.;"Рождества Христова; Михаила Архангела; Николая Чудотворца";56.396100;38.728700
1254;Церковь Иконы Божией Матери Боголюбская в Александрове;церковь;1800;нет данных;действ.;Владимирская обл., г. Александров, Красный пер., 2;Типовая церковь в стиле классицизма на городском кладбище. В 1829 пристроены приделы Феодора Стратилата и вмч. Варвары. Закрыта в 1930-х, занята складом, кладбище срыто. Открыта в нач. 1990-х, отреставрирована.;"Иконы Божией Матери Боголюбская; Варвары Великомученицы; Феодора Стратилата";56.393570;38.716400
30206;Церковь Пантелеимона Целителя в Александрове;церковь;2009;нет данных;действ.;Владимирская обл., г. Александров, ул. Восстания 1905 года, больничный городок;Кирпичная одноглавая однопрестольная церковь, четверик под четырёхлепестковым куполом, со звонницей у южного фасада. Заложена в июне 2009, освящена великим чином 25 мая 2019.;Пантелеимона Целителя;56.401756;38.717717
1255;Церковь Преображения Господня в Александрове;церковь;не позже 2-й пол. XVI в.;нет данных;действ.;Владимирская обл., г. Александров, ул. Садово-Огородная, 2А;Церковь типа восьмерик на четверике в духе барокко. В пристроенной в 1804 трапезной приделы Захария и Елизаветы (до 1804 в главном храме) и Богоявления Господня. Закрыта в 1930-х, колокольня сломана. Занята реставрационным участком. В 2010 возвращена приходу. Восстанавливается. Богослужения регулярные.;"Преображения Господня; Богоявления Господня; Захарии и Елисаветы";56.401600;38.738200
1256;Церковь Серафима Саровского в Александрове;церковь;1904;нет данных;действ.;Владимирская обл., Александровский р-н, г. Александров, ул. Вокзальная, 8;Церковь в псевдорусском стиле выстроена на месте построенной в 1898 часовни Успенского Александровского монастыря. После закрытия капитально перестроена, занята столовой. В 2000-х отреставрирована.;Серафима Саровского;56.398260;38.705700
14415;Часовня Николая Чудотворца в Александрове (тюремная);часовня;2007;нет данных;действ.;Владимирская обл., г. Александров, ул. Ленина, 81;Часовня в корпусе следственного изолятора ИЗ-33/2. Устроена в 2007-2008, внешне выделена куполом.;Николая Чудотворца;56.398480;38.727510
24275;Церковь Рождества Пресвятой Богородицы в Александрово;церковь;1-я треть XVII в.;нет данных;действ.;Владимирская обл., Судогодский р-н, с. Александрово;Кирпичная церковь с декором в стиле классицизма. Построена в 1794-1799, в 1826 расширена боковыми приделами, декор изменен в формах классицизма. Основной объем - четверик, завершенный декоративным пятиглавием, с поясом кокошников под карнизом, трапезной соединенный с колокольней. Боковые приделы Илии Пророка и Спаса Нерукотворного, в трапезной - Александро-Невский и Димитриево-Солунский. Закрыта в кон. 1930-х. Находится в аварийном состоянии, часть сводов, включая свод четверика, рухнула. С 2011 периодически проводятся молебны. В 2012-2015 полностью отреставрирована колокольня, в которой проводятся регулярные богослужения. Церковь приписана к Сергиевскому храму в Бараках.;"Рождества Пресвятой Богородицы; Димитрия Солунского; Илии Пророка; Спаса Нерукотворного Образа; Александра Невского";55.937104;40.619039
21974;Церковь Николая Чудотворца в Алексино;церковь;не позже 1-й трети XVII в.;нет данных;сохр.;Владимирская обл., Петушинский р-н, д. Алексино;Кирпичная церковь с трапезной и колокольней, построенная в 1827-1832 в формах традиционного зодчества. Трехсветный четверик, завершенный декоративным пятиглавием, с трапезной и трехъярусной колокольней. В трапезной Михаило-Архангельский и Казанский приделы. Закрыта не позже 1930-х, к 1980-м заброшена. Восстанавливается с нач. 2010-х. Приписана к Афанасьевскому храму в Петушках.;"Николая Чудотворца; Иконы Божией Матери Казанская; Михаила Архангела";56.122880;39.655840
13773;Церковь Введения Пресвятой Богородицы во Храм в Алексино;церковь;не позже XIV в.;нет данных;сохр.;Владимирская обл., Кольчугинский р-н, с. Алексино;Кирпичная тёплая церковь, построенная в 1872-1875 в русско-византийском стиле. Односветный двустолпный храм, кубический в плане, завершавшийся декоративным пятиглавием, с невысокой колокольней. Боковые приделы Никольский и Казанский. Закрыта не позже 1930-х, венчания сломаны. Заброшена.;"Введения Пресвятой Богородицы во Храм; Николая Чудотворца; Иконы Божией Матери Казанская";56.409200;39.341300
22003;Церковь Покрова Пресвятой Богородицы в Алепино;церковь;не позже XV в.;нет данных;сохр.;Владимирская обл., Собинский р-н, с. Алепино;Кирпичная церковь в формах позднего классицизма, построенная в 1850. Однокупольный храм приземистых пропорций с трапезной, в которой помещались Космодамианский и Предтеченский приделы, и трехъярусной колокольней. Закрыта в 1930-х. В целом находится в удовлетворительном состоянии, но для регулярных богослужений не используется. В 2022 разработан план восстановления храма.;"Покрова Пресвятой Богородицы; Иоанна Предтечи; Космы и Дамиана";56.220570;39.801980
14838;Церковь Рождества Иоанна Предтечи в Алешунино;церковь;;нет данных;действ.;Владимирская обл., Муромский р-н, д. Алешунино, ул. Школьная;Небольшая деревянная одноглавая клетская церковь с прямоугольными алтарём и притвором. Освящена 12.06.2009 архиеп. Владимирским Евлогием.;Рождества Иоанна Предтечи;55.826100;42.334000
6779;Церковь Андрея Первозванного на Андреевском Погосте;церковь;не позже XVI в.;нет данных;действ.;Владимирская обл., Киржачский р-н, ур. Андреевский Погост (3 км ЮЗ д. Новоселово);Кирпичная церковь, построенная в 1825 в стиле классицизма. Двусветный четверик с узкими боковыми портиками, увенчанный невысокой ротондой, с двухпридельной трапезной и трёхъярусной колокольней. В трапезной были Никольский и Мироносицкий приделы. Закрыта не позже 1930-х, в 1970-х частично отремонтирована. В 2000-х возвращена верующим, ремонтируется.;"Андрея Первозванного; Жен Мироносиц; Николая Чудотворца";56.049000;39.019700
26102;Часовня Георгия Победоносца на месте гибели Гагарина;часовня;2017;2017-2018: Ржевский В. Н.;действ.;Владимирская обл., Киржачский р-н, 800 м ЮВ ур. Андреевский Погост;Каменная крестообразная в плане одноглавая шатровая часовня, построенная в 2017-2018 в составе нового мемориального комплекса на месте гибели Ю. А. Гагарина и В. С. Серегина, на средства семьи В. С. Серегина и летчика-космонавта А. А. Леонова. Освящена 27 марта 2018.;Георгия Победоносца;56.046288;39.026033
13893;Церковь Андрея Первозванного в Андреевском;церковь;1703;1772-1779: Берк Н. П. – строительство по собств. проекту;действ.;Владимирская обл., Петушинский р-н, с. Андреевское;Домовая церковь при усадьбе Воронцовых, построенная в 1772-1779 на средства Р. И. Воронцова. Двусветный пятиглавый четверик с небольшой трапезной, в которой помещался Борисоглебский придел, и двухъярусной колокольней под шпилем. Декор в духе раннего классицизма. В XIX в. была приписана к храму в Рощино. Закрыта не позже 1930-х, сломана колокольня, использовалась как гараж. В 1990-х возвращена верующим, отреставрирована.;"Андрея Первозванного; Бориса и Глеба";56.028980;39.647970
25861;Часовня Михаила Архангела в Андреевском;часовня;ок. 2007;нет данных;действ.;Владимирская обл., Юрьев-Польский р-н, с. Андреевское;Деревянная входная часовня типа восьмерик на четверике, на каменном фундаменте.;Михаила Архангела;56.374194;40.037312
29196;Часовня в Андрейцево;часовня;XIX в. (?);нет данных;действ.;Владимирская обл., Камешковский р-н, д. Андрейцево;Оштукатуренная кирпичная часовня-столп, стоящая на небольшой площади в центре деревни. Квадратная в плане постройка, завершающаяся четырьмя мощными килевидными кокошниками и имеющая восьмискатное покрытие, увенчанное крестом вместо главки. До революции принадлежала Троицкой церкви Омутец-Пестьянского погоста. Поддерживается в порядке, во всех четырёх киотах на гранях размещены иконы.;;56.233085;40.856672
21975;Церковь Михаила Архангела в Анкудиново;церковь;1867;нет данных;сохр.;Владимирская обл., Петушинский р-н, д. Анкудиново;Кирпичная церковь в формах эклектики, построенная в 1867 на средства купца Г. Белова на месте, где по преданию в старину существовал храм. Была приписана к церкви в Алексино. Четверик со срезанными углами, перекрытый куполом, с прямоугольным алтарем и трапезной. Закрыта не позже 1930-х. В 1997 возвращена верующим, ремонтируется.;Михаила Архангела;56.077900;39.583130
23201;Церковь Иоанна Предтечи в Аннино;церковь;не позже 1671;нет данных;сохр.;Владимирская обл., Суздальский р-н, ур. Аннино (2 км Ю д. Фомицыно);Кирпичная церковь, построенная в 1778 на средства князя Несвицкого. Четырехстолпная двусветная постройка, завершенная световым четвериком, перекрытым купольным сводом. Боковые приделы Сергиевский и Успенский. Закрыта не позже 1930-х. Пустует, находится в аварийном состоянии.;"Иоанна Предтечи; Успения Пресвятой Богородицы; Сергия Радонежского";56.190150;40.098300
17138;Церковь Покрова Пресвятой Богородицы в Анопино;церковь;1992;2003-2005: Трофимов А. Н.;действ.;Владимирская обл., Гусь-Хрустальный р-н, пос. Анопино, ул. Ленина, 1А;"Кирпичная церковь, сооружённая в 2003-2005 на средства компании ""РАСКО"". Здание типа восьмерик на четверике с прямоугольными алтарём и притворами, с колокольней, декор стилизован в духе барокко.";Покрова Пресвятой Богородицы;55.700836;40.663295
33250;Часовня в Антушово;часовня;2000-е;нет данных;действ.;Владимирская обл., Петушинский р-н, д. Антушово;Деревянная невходная часовня на каменном фундаменте. Представляет собой четверик под четырёхскатной крышей, с главкой без шейки. Стоит несколько севернее застроенной части деревни.;;55.979637;39.604510
23199;Церковь Троицы Живоначальной в Арбузово;церковь;не позже XV в.;2016: Бутиков В. Ю. – реставрация;действ.;Владимирская обл., Собинский р-н, с. Арбузово, ул. Покровская;Кирпичная церковь, построенная в 1805-1829 на средства местных помещиков. Двусветный четверик с боковыми портиками, завершённый стройным восьмериком, с трапезной и четырёхъярусной колокольней под шпилем. В трапезной Покровский и Димитриевский приделы. Не закрывалась.;"Троицы Живоначальной; Димитрия Солунского; Покрова Пресвятой Богородицы";56.009361;40.151185
9083;Церковь Николая Чудотворца в Аргуново;церковь;не позже сер. XV в.;нет данных;сохр.;Владимирская обл., Петушинский р-н, ур. Аргуново (2 км ЮВ д. Барсково);Кирпичная четырёхстолпная пятикупольная церковь в формах позднего барокко, была выстроена в 1795. Колокольня сооружена в 1813, в 1821-1826 между ней и храмом встроена тёплая трапезная. В холодной церкви были боковые Петропавловский и Варваринский приделы, в трапезной Ильинский и Богоявленский. Закрыта в 1938. На рубеже 1950-1960-х основной храм и трапезная снесены, уцелела только колокольня.;"Николая Чудотворца; Богоявления Господня; Илии Пророка; Петра и Павла; Варвары Великомученицы";55.993257;38.995197
31130;Часовня Иконы Божией Матери Грузинская в Арефино;часовня;ок. 2008;нет данных;действ.;Владимирская обл., Камешковский р-н, д. Арефино, напротив д. 9А;Бревенчатая часовня на кирпичном фундаменте, построена ок. 2008 усердием супругов А. и В. Куликовых. Четверик под железной четырёхскатной крышей. Освящена 25 нояб. 2021. Приписана к Грузинской церкви в Краснознаменском.;Иконы Божией Матери Грузинская;56.486246;41.021349
14740;Церковь Михаила Архангела в Архангеле;церковь;не позже XVI в.;нет данных;действ.;Владимирская обл., Меленковский р-н, с. Архангел;Кирпичная церковь, построенная в кон. XVII - 1-й пол. XVIII вв. Бесстолпный одноглавый четверик с трёхчастным алтарем. Позже перестроена в духе классицизма, сооружены колокольня (кон. XVIII в.), южный Петропавловский придел (1851). Закрыта не позже 1930-х. В 1993 возвращена верующим, отремонтирована.;"Михаила Архангела; Петра и Павла";55.449800;41.548200
11800;Церковь Михаила Архангела на Архангельском Погосте;церковь;не позже XVI в.;нет данных;сохр.;Владимирская обл., Киржачский р-н, ур. Архангельский Погост (2 км СВ д. Халино);Кирпичная церковь в стиле классицизма, построенная в 1814-1837. Четверик, увенчанный невысокой ротондой, с узкими боковыми портиками, трапезной и колокольней. Трапезная с Успенским и Спиридоньевским приделами расширена в 1846. Закрыта не позже 1930-х, долгое время пустовала. В кон. 2000-х начат ремонт.;"Михаила Архангела; Успения Пресвятой Богородицы; Спиридона, епископа Тримифунтского";56.180500;39.105000
23200;Церковь Сошествия Святого Духа в Асерхово;церковь;2002;нет данных;действ.;Владимирская обл., Собинский р-н, пос. Асерхово;Небольшая деревянная церковь, заложенная в 2002 и освященная в 2008. Четверик с шатровым куполом, с алтарем и крыльцом. Приписана к церкви в Арбузово.;Сошествия Святого Духа;55.943520;40.247590
22954;Часовня в Астафьево;часовня;после 1893;нет данных;действ.;Владимирская обл., Собинский р-н, д. Астафьево;Кирпичный часовенный столб, сооруженный в кон. XIX - нач. ХХ вв., в деревне ставровского прихода. Восьмигранная в плане постройка. В 2000-х отремонтирован, завершен главкой.;;56.109720;40.050230
1278;Церковь Иоанна Богослова в Афанасьево;церковь;не позже XVI в.;нет данных;действ.;Владимирская обл., Александровский р-н, с. Афанасьево;Кирпичная церковь в стиле провинциального классицизма, сооруженная в 1802. В трапезной помещался Никольский придел. Закрыта в 1930-х, колокольня сломана в 1964. Открыта в 1999, отремонтирована.;"Иоанна Богослова; Николая Чудотворца";56.423100;38.686100
21131;Церковь Покрова Пресвятой Богородицы в Афинеево;церковь;сер. 2000-х;нет данных;действ.;Владимирская обл., Юрьев-Польский р-н, с. Афинеево;Кирпичная церковь-часовня, сооруженная в сер. 2000-х и приписанная к Никольскому монастырю в Новом. Четверик, перекрытый восьмискатным шатром, с небольшой апсидой и двухъярусной колокольней.;Покрова Пресвятой Богородицы;56.530660;39.566200
22824;Церковь Михаила Архангела в Бабаево;церковь;1683;нет данных;действ.;Владимирская обл., Собинский р-н, с. Бабаево;Кирпичная церковь, построенная в 1683 на средства владимирского воеводы стольника Д. Н. Наумова, характерная для московского зодчества кон. XVII в. Бесстолпный двусветный четверик, завершенный пятиглавием на горке кокошников. Многоярусная колокольня в формах классицизма построена в 1821 на средства князя Д. Н. Салтыкова, трапезная с Георгиевским и Преображенским (устроен в 1883) приделами сооружена в 1836. Закрыта в 1937. В 1992 возвращена верующим, отремонтирована.;"Михаила Архангела; Георгия Победоносца; Преображения Господня";56.102850;40.080215
23718;Часовня в Бабанино;часовня;;нет данных;сохр.;Владимирская обл., Петушинский р-н, д. Бабанино;"Кирпичная ""входная"" часовня в псевдорусском стиле, построенная в кон. XIX - нач. ХХ вв. Четверик, перекрытый восьмискатным кирпичным шатром с главкой. Входила в омофоровский приход. Закрыта не позже 1930-х, пустует.";;56.010330;39.801920
13774;Церковь Богоявления Господня в Бавленах;церковь;не позже XIV в.;нет данных;действ.;Владимирская обл., Кольчугинский р-н, пос. Бавлены;Кирпичная церковь с декором в стиле классицизма, сооружённая в 1803-1810. Двусветный одноглавый четверик с трапезной и четырёхъярусной колокольней. В трапезной тёплый Рождество-Богородицкий придел. Богослужения прекращены в 1938. Возвращена верующим в 1991, отреставрирована.;"Богоявления Господня; Рождества Пресвятой Богородицы";56.390150;39.584600
8338;Часовня в Байково;часовня;не позже XIX в.;нет данных;сохр.;Владимирская обл., Камешковский р-н, д. Байково;Кирпичный часовенный столб, завершенный луковичной главой. Был приписан к церкви в Фомихе. В настоящее время приписана к Никольской общине в Санино.;;56.353097;40.660990
1280;Церковь Димитрия Солунского в Бакшееве (новая);церковь;2004;нет данных;действ.;Владимирская обл., Александровский р-н, с. Бакшеево;Новая церковь, устроенная на новом месте в 2004. Помещена в приспособленном кирпичном здании, надстроенном главкой.;Димитрия Солунского;56.448340;38.702600
1281;Церковь Рождества Пресвятой Богородицы в Балакирево;церковь;нач. 2000-х;;действ.;Владимирская обл., Александровский р-н, пос. Балакирево;Четырёхстолпный одноглавый кирпичный храм в духе владимирского зодчества XII-XIII вв. с папертями и шатровой звонницей у угла, удачный образец стилизации.;Рождества Пресвятой Богородицы;56.506750;38.836500
24274;Церковь Сергия Радонежского в Бараках;церковь;2014;2014-2018: Трофимов А. Н.;действ.;Владимирская обл., Судогодский р-н, д. Бараки, угол ул. Советской и ул. Новой;Деревянная церковь, одноглавый четверик, увенчанный шатром на невысоком восьмерике, с небольшой трапезной, шатровой колокольней и пятигранной апсидой, с западным и северным крыльцами. Работы начаты в 2014, закладной камень освящён 30 марта 2015. Построена по проекту арх. А. Н. Трофимова и освящена в апр. 2018.;Сергия Радонежского;56.047011;40.535607
9082;Часовня Николая Чудотворца в Барсково;часовня;не позже XIX в.;нет данных;действ.;Владимирская обл., Петушинский р-н, д. Барсково, ул. Советская;Крупная кирпичная часовня в псевдорусском стиле, возведённая в 1887. Кубическая постройка под низкой шатровой кровлей с крыльцом. Была приписана к храму в Аргуново. Закрыта не позже 1930-х, служила керосиновой лавкой, к 1990-м заброшена. С 1997 ремонтируется.;Николая Чудотворца;56.009878;39.008454
7690;Церковь Троицы Живоначальной в Барском Городище;церковь;не позже XVI в.;нет данных;сохр.;Владимирская обл., Суздальский р-н, д. Барское Городище;Кирпичная церковь, выстроенная в 1792. Двусветный одноапсидный четверик с трапезной и колокольней. В трапезной был Знаменский придел. Закрыта не позже 1930-х, венчания сломаны. С 1950-х занята столовой и спортивным залом школы-интерната, поддерживается в порядке.;"Троицы Живоначальной; Иконы Божией Матери Знамение";56.349700;40.518000
18209;Церковь Покрова Пресвятой Богородицы в Барском Татарово;церковь;не позже нач. XVII в.;нет данных;сохр.;Владимирская обл., Вязниковский р-н, с. Барское Татарово;Кирпичная церковь в формах классицизма, построенная в 1789. Односветный четверик, завершенный ротондой, с трапезной, расширенной в 1830 и колокольней. Приделы в трапезной Трехсвятский и Троицкий. Закрыта не позже 1930-х, колокольня сломана. Долгое время использовалась в качестве котельной. В настоящее время пустует, в аварийном состоянии.;"Покрова Пресвятой Богородицы; Троицы Живоначальной; Трех Святителей Великих";56.391900;41.915600
13216;Церковь Александра Невского в Барсово;церковь;2000;2000-2014: Колганов Р. А.;действ.;Владимирская обл., Киржачский р-н, пос. Барсово;Кирпичная церковь, одноглавый однопрестольный храм в псковско-новгородском стиле, четверик с трифолийным завершением фасадов, с боковыми конхами (проект арх. Р. А. Колганова). Расположена на территории военного городка, заложена 3 дек. 2000. На время строительства в городке действовала молитвенная комната, куда при необходимости допускались и гражданские жители. Иконы и росписи выполнены выпускниками Свято - Тихоновского богословского института. Освящена в дек. 2014.;Александра Невского;56.109800;38.773300
24419;Церковь Рождества Пресвятой Богородицы в Баскаках;церковь;1677;нет данных;действ.;Владимирская обл., Суздальский р-н, с. Баскаки;Кирпичная церковь с эклектичным декором, построенная в 1868. Невысокий одноглавый четверик, трапезной соединенный с трехъярусной колокольней. Приделы Симеона Богоприимца и Георгия Победоносца. Закрыта не позже 1930-х, долгое время пустовала. Отремонтирована в кон. 2000-х.;"Рождества Пресвятой Богородицы; Георгия Победоносца; Симеона Богоприимца";56.285392;40.574444
32230;Часовня Петра и Февронии Муромских в Беге;часовня;2013;нет данных;действ.;Владимирская обл., Судогодский р-н, пос. Бег, ул. Октябрьская, у д. 4;Деревянная рубленая часовня, небольшой четверик на четверике, на бетонном фундаменте. Построена в 2013-2015 на участке и по инициативе Валерия Смирнова. Освящена 30 марта 2015. Приписана к судогодскому собору.;Петра и Февронии Муромских;55.937167;40.842342
13217;Часовня в Бельцах;часовня;кон. XIX - нач. ХХ вв.;нет данных;действ.;Владимирская обл., Киржачский р-н, д. Бельцы;Кирпичный часовенный столб, сооружённый в кон. XIX - нач. ХХ вв. Был приписан к церкви Данутинского погоста. В настоящее время отремонтирован.;;;
23086;Церковь Георгия Победоносца в Березниках;церковь;не позже нач. XVII в.;нет данных;действ.;Владимирская обл., Собинский р-н, с. Березники, ул. Центральная;Кирпичная церковь построена однопрестольной вместо прежней деревянной (нач. XVII) того же посвящения. В 1781-1788 на средства кн. А. П. Голицына в трапезной устроен Пятницкий придел. В 1838 трапезная расширена с устройством Ильинского придела. В 1856-1859 расширен основной объём. Представляет собой пятиглавый двухсветный четверик с удлиненной трапезной и ярусной колокольней. В советское время закрыта, ныне возвращена верующим.;"Георгия Победоносца; Илии Пророка; Параскевы (Пятницы)";55.867566;40.107446
26270;Часовня Иконы Божией Матери Неопалимая Купина в Берково;часовня;2011;нет данных;действ.;Владимирская обл., Камешковский р-н, д. Берково;Каменная одноглавая часовня - вытянутый четверик под вальмовой крышей, выстроенная в 2011 в память преждебывшей одноименной часовни.;Иконы Божией Матери Неопалимая Купина;56.335618;40.970416
8126;Церковь Благовещения Пресвятой Богородицы на Благовещенском Погосте;церковь;не позже XV в.;нет данных;сохр.;Владимирская обл., Кольчугинский р-н, ур. Благовещенский Погост (1 км В д. Тимошкино);Редкий образец вотчинного храма XVI в. Кирпичная церковь сооружена на средства бояр Нагих (по ряду сведений - И. И. Нагим в 1501). Двустолпный одноглавый четверик с трёхчастной апсидой и боковыми притворами. В XVII-XIX вв. первоначальное покрытие изменено, углы надложены деревом, устроена новая кровля. Трапезная с Сергиевским и Троицким (устроен в 1851) приделами пристроена в 1797, колокольня со шпилем в 1833. В настоящее время заперт, требует ремонта. Были планы создания здесь скита Космина монастыря, сейчас церковь опекается общиной храма во Флорищах.;"Благовещения Пресвятой Богородицы; Троицы Живоначальной; Сергия Радонежского";56.317560;39.130000
8127;Церковь Иконы Божией Матери Знамение на Благовещенском Погосте;церковь;1751;нет данных;сохр.;Владимирская обл., Кольчугинский р-н, ур. Благовещенский Погост (1 км В д. Тимошкино);Небольшая деревянная церковь типа восьмерик на четверике с трапезной. Сооружена в 1751 рядом с Благовещенским храмом на средства архим. Иоанна, отремонтирована в 1881. В настоящее время заперта, требует ремонта.;Иконы Божией Матери Знамение;56.317800;39.130200
14839;Церковь Вознесения Господня в Благовещенском;церковь;1864;нет данных;сохр.;Владимирская обл., Муромский р-н, с. Благовещенское;Кирпичная неоштукатуренная церковь в псевдорусском стиле, построенная в нач. ХХ в. Невысокий двусветный одноглавый четверик с пятигранным алтарём, трапезной и колокольней, завершавшейся каркасным шатром, с довольно богатым декоративным убранством. Закрыта не позже 1930-х, венчания сломаны. Пустует.;Вознесения Господня;55.727100;42.206200
18351;Часовня Вознесения Господня в Богдарне;часовня;не позже XIX в.;нет данных;действ.;Владимирская обл., Петушинский р-н, д. Богдарня;Часовня в деревне марковского прихода существовала еще до революции, в ХХ в. разрушена. В 1990-х на средства предпринимателя Джона М. Кописки построена крупная восьмигранная одноглавая кирпичная часовня.;Вознесения Господня;55.874025;39.359726
4241;Боголюбский женский монастырь;монастырь;;нет данных;действ.;Владимирская обл., Суздальский р-н, пос. Боголюбово;;;56.196170;40.537250
4242;Собор Иконы Божией Матери Боголюбская в Боголюбском монастыре;церковь;;;действ.;Владимирская обл., Суздальский р-н, пос. Боголюбово, Боголюбский монастырь;;"Иконы Божией Матери Боголюбская; Симеона и Анны; Петра и Павла";56.196100;40.536100
4243;Собор Рождества Пресвятой Богородицы в Боголюбском монастыре;церковь;;нет данных;действ.;Владимирская обл., Суздальский р-н, пос. Боголюбово, Боголюбский монастырь;;Рождества Пресвятой Богородицы;56.196000;40.537200
4244;Церковь Благовещения Пресвятой Богородицы в Боголюбском монастыре;церковь;;нет данных;действ.;Владимирская обл., Суздальский р-н, пос. Боголюбово, Боголюбский монастырь;;Благовещения Пресвятой Богородицы;56.195880;40.536800
4245;Церковь Успения Пресвятой Богородицы в Боголюбском монастыре;церковь;;нет данных;действ.;Владимирская обл., Суздальский р-н, пос. Боголюбово, Боголюбский монастырь;Надвратная каменная церковь с колокольней.;Успения Пресвятой Богородицы;56.196580;40.536150
4246;Часовня в Боголюбском монастыре;часовня;не позже XIX в.;нет данных;действ.;Владимирская обл., Суздальский р-н, пос. Боголюбово, Боголюбский монастырь;Часовня на месте, где, по преданию, лежало брошенное убийцами тело св. кн. Андрея Боголюбского.;;56.195900;40.537230
10399;Церковь Иоакима и Анны в Боголюбово;церковь;не позже начала XVII века;2000-е: Ефимов А. Д. – реставрация;действ.;Владимирская обл., Суздальский р-н, пос. Боголюбово;Каменная двухэтажная церковь с Христорождественским приделом в нижнем этаже, построена вместо прежней деревянной. Закрыта в 1930-х, сломаны колокольня и завершения, первоначально в здании располагался склад, позднее клуб. В настоящее время церковь возвращена верующим, восстанавливается.;"Иоакима и Анны; Рождества Христова";56.194700;40.532000
19263;Часовня Иконы Божией Матери Живоносный Источник в Боголюбово;часовня;;нет данных;действ.;Владимирская обл., Суздальский р-н, с. Боголюбово;Кирпичная часовня с купальней над источником. Построена в 2000-е.;Иконы Божией Матери Живоносный Источник;56.196370;40.538500
19706;Церковь Иоанна Богослова в Богослово;церковь;не позже XVI в.;нет данных;действ.;Владимирская обл., Суздальский р-н, с. Богослово;Кирпичная церковь в стиле классицизма, построенная в 1833. Двусветный четверик, завершенный низкой глухой ротондой с куполом, с двухпридельной трапезной, расширенной в 1876, и колокольней. Приделы Покровский и Никольский. Закрыта в 1937, занята под склад. Возвращена верующим в 1994, отреставрирована.;"Иоанна Богослова; Николая Чудотворца; Покрова Пресвятой Богородицы";56.159400;40.326400
29805;Церковь Рождества Пресвятой Богородицы в Большелучинском;церковь;не позже нач. XVII в.;нет данных;действ.;Владимирская обл., Юрьев-Польский р-н, с. Большелучинское;Кирпичная церковь, пятиглавый кубический двухсветный основной объём с трёхчастной апсидой, широкой трапезной и трёхъярусной колокольней, сооружена в 1861 взамен старого деревянного храма. В тёплой трапезной были приделы Рождества Христова и Модеста Иерусалимского. Закрыта в 1942. Реставрируется с 2007, является подворьем Космина Яхромского монастыря.;"Рождества Пресвятой Богородицы; Модеста, патриарха Иерусалимского; Рождества Христова";56.483364;39.300961
3554;Церковь Петра и Павла в Большепетровском;церковь;;нет данных;действ.;Владимирская обл., Юрьев-Польский р-н, с. Большепетровское;Храм приписан у Успенскому Космину Яхромскому монастырю. Богослужения с 2011 раз в неделю. Восстановление продолжается.;Петра и Павла;56.459400;39.323000
1283;Церковь Рождества Пресвятой Богородицы в Больших Вёсках;церковь;не позже XVI в.;нет данных;сохр.;Владимирская обл., Александровский р-н, с. Большие Вёски, д. 57;Кирпичная церковь в стиле классицизма с элементами традиционного зодчества, четверик увенчан декоративным пятиглавием. В трапезной придел Космы и Дамиана. Закрыта в 1930-х, колокольня сломана. Требует ремонта. Богослужения раз в год клиром Преображенского храма города СМтрунино.;"Рождества Пресвятой Богородицы; Космы и Дамиана";56.544144;39.055080
4095;Церковь Успения Пресвятой Богородицы в Больших Всегодичах;церковь;не позже сер. XVI в.;нет данных;действ.;Владимирская обл., Ковровский р-н, с. Большие Всегодичи, ул. Богатая, д. 23А;Успенская церковь, документально известная с 1628, в 1727-1728 за ветхостью была заменена новым одноимённым храмом. Ныне существующее кирпичное церковное здание заложено на месте второй старой деревянной церкви - Никольской. Главный престол освящён в 1777, хотя тёплый Никольский придел появился ещё в 1772. В 1792 дополнительно устроен тёплый Ильинский придел. Пятиглавый четверик с однобокой (в северную сторону) трапезной и отдельно стоящей шатровой колокольней. Церковь не действовала с 1937 за отсутствием священника. Службы возобновлены в 1946, в частности, по ходатайству оружейника генерал-майора В. А. Дегтярева. Больше не закрывалась.;"Успения Пресвятой Богородицы; Николая Чудотворца; Илии Пророка";56.444493;41.330233
26252;Часовня Иконы Божией Матери Неопалимая Купина в Больших Всегодичах;часовня;не позже 1-й пол. XIX в.;нет данных;действ.;Владимирская обл., Ковровский р-н, с. Большие Всегодичи, ул. Центральная, д. 65А;Каменная крытая железом входная часовня, стоявшая посреди села ещё до революции, была разрушена в советское время, её место занял магазин. Новая каменная входная часовня, одноглавое здание пятиугольной формы, под крышей колпаком, сооружена неподалёку в 2007.;Иконы Божией Матери Неопалимая Купина;56.445992;41.328178
15975;Церковь Иконы Божией Матери Всех Скорбящих Радость в Большом Борисово;церковь;не позже XVI в.;нет данных;сохр.;Владимирская обл., Суздальский р-н, с. Большое Борисово;Кирпичная зимняя церковь в стиле позднего классицизма, построенная в 1839. Четверик с пилястровыми портиками, вероятно, перекрывавшийся куполом, с прямоугольным алтарем и притвором. До 1990-х использовалась как клуб, в настоящее время заперта.;Иконы Божией Матери Всех Скорбящих Радость;56.551550;40.608600
15976;Церковь Николая Чудотворца в Большом Борисово;церковь;не позже XVI в.;нет данных;сохр.;Владимирская обл., Суздальский р-н, с. Большое Борисово;Кирпичная летняя церковь, сооруженная в 1800. Двусветный одноглавый одноапсидный четверик с декором в духе зодчества XVII в., с небольшой трапезной и высокой шатровой колокольней. Закрыта не позже 1930-х, в настоящее время пустует.;Николая Чудотворца;56.551780;40.608370
13778;Церковь Воскресения Христова в Большом Забелино;церковь;не позже XVIII в.;нет данных;действ.;Владимирская обл., Кольчугинский р-н, д. Большое Забелино;Кирпичная церковь, выстроенная в 1807 на средства помещика М. В. Митькова. Двусветный четверик, перекрытый высоким сводом с главкой, с трапезной с южным Никольским приделом и колокольней. Закрыта не позже 1930-х, сломана колокольня. В последующем заброшена, в тяжёлом состоянии, своды трапезной рухнули. В 2010 начато восстановление силами Покровского храма в Давыдовском, к которому храм приписан в настоящее время. Восстановление продолжается, богослужения проходят в храмовый праздник.;"Воскресения Христова; Николая Чудотворца";56.364300;39.432800
1284;Церковь Усекновения Главы Иоанна Предтечи в Большом Каринском;церковь;не позже XV в.;нет данных;сохр.;Владимирская обл., Александровский р-н, с. Большое Каринское;Разрушенный в Смуту храм был восстановлен в 1644. Кирпичная церковь была выстроена в стиле классицизма. В трапезной помещался Никольский придел. В 1940-х капитально перестроена, венчания разобраны. Используется как сельский клуб.;"Усекновения Главы Иоанна Предтечи; Николая Чудотворца";56.369200;38.648300
13779;Церковь Рождества Пресвятой Богородицы в Большом Кузьминском;церковь;не позже XVI в.;нет данных;действ.;Владимирская обл., Кольчугинский р-н, д. Большое Кузьминское;Кирпичная церковь в стиле классицизма с колокольней. Построена в 1820 помещицей Стромиловой. Двусветный четверик холодного храма был увенчан крупной ротондой, с запада к нему примыкала трапезная, в которой был устроен Никольский придел. Закрыта не позже 1930-х, сломаны колокольня, купол храма. До 1990-х сохранились только стены без перекрытий. В сер. 2000-х возвращена верующим, начат ремонт.;"Рождества Пресвятой Богородицы; Николая Чудотворца";56.420400;39.533100
14840;Церковь Иконы Божией Матери Казанская в Борисово;церковь;не позже 3-й четв. XVII в.;нет данных;сохр.;Владимирская обл., Муромский р-н, с. Борисово;Кирпичная церковь в псевдорусском стиле, построенная в нач. ХХ в. (после 1896). Невысокий четверик с полукруглым алтарём и притвором. Закрыта не позже 1930-х. Венчания сломаны, сооружены пристройки. Используется как сельский клуб.;Иконы Божией Матери Казанская;55.675800;42.045370
23445;Церковь Василия Великого в Борисовском;церковь;не позже XV в.;нет данных;действ.;Владимирская обл., Суздальский р-н, c. Борисовское, ул. Церковная, 33;Кирпичная церковь, построенная в 1835 в формах позднего классицизма с элементами неоготики. Четверик, завершенный ротондой, с трапезной, в которой помещен Никольский придел, и трехъярусной колокольней. Закрыта в 1933. В нач. 1990-х возвращена верующим, отремонтирована. До 2012 находилась в ведении общины РПАЦ.;"Василия Великого; Николая Чудотворца";56.275115;40.475531
23446;Церковь Виктора Халкидонского в Борисовском;церковь;1990-е;нет данных;сохр.;Владимирская обл., Суздальский р-н, c. Борисовское, ул. Пантелеевская;Церковь устроена в приспособленном здании в 1990-х в связи с занятием исторического здания храма общиной раскольников. Прямоугольная в плане постройка со звонницей. В настоящее время стоит запертой, службы не проводятся.;Виктора Халкидонского;56.275639;40.481326
19003;Церковь Иконы Божией Матери Казанская в Борисоглебе;церковь;не позже XVI в.;нет данных;действ.;Владимирская обл., Судогодский р-н, с. Борисоглеб;Кирпичная церковь, построенная в 1776-1790, с декором в духе барокко. Двусветный пятиглавый четверик с трапезной и четырехъярусной колокольней, перестроенной в 1859. Приделы в трапезной Ильинский и Борисоглебский. Закрыта ок. 1940. В 1995 возвращена верующим, в 2000-х отремонтирована.;"Иконы Божией Матери Казанская; Илии Пророка; Бориса и Глеба";56.010800;40.353800
3747;Церковь Рождества Христова в Борисоглебе;церковь;2-я пол. XVII в.;нет данных;действ.;Владимирская обл., Муромский р-н, с. Борисоглеб;Кирпичная церковь, сооружённая в 4-й четв. XVII в. в духе традиционного зодчества как монастырский храм. Двухэтажное здание с вынесенным на восток алтарём нижней церкви и западной галереей-гульбищем. Основной объём - бесстолпный четверик, вытянутый по поперечной оси, завершённый крупными декоративными закомарами и пятиглавием, к северо-западному углу примыкает шатровая колокольня. Внизу Христорождественский престол, вверху Казанский. Закрыта не позже 1930-х, в 1980-х реставрировалась. В 1992 возвращена верующим.;"Рождества Христова; Иконы Божией Матери Казанская";55.716250;42.019700
9079;Церковь Вознесения Господня на Борисоглебском погосте;церковь;не позже XVII в.;нет данных;действ.;Владимирская обл., Киржачский р-н, ур. Борисоглебское (2 км Ю д. Федоровское);Кирпичная церковь в стиле классицизма, сооружённая в 1810-1828. Состоит из двусветного четверика со срезанными углами, увенчанного ротондой и украшенного боковыми портиками, трапезной и колокольни. В трапезной, расширенной в 1848, Успенский и Борисоглебский приделы. Закрыта в 1930-х, возвращена верующим в 1990-х в тяжёлом состоянии, ремонтируется.;"Вознесения Господня; Бориса и Глеба; Успения Пресвятой Богородицы";56.095999;38.867170
28962;Церковь Николая Чудотворца в Боровицах;церковь;не позже 1678;нет данных;сохр.;Владимирская обл., Муромский р-н, с. Боровицы, ул. Приокская, д. 56;Кирпичная трёхпрестольная церковь построена вместо предшествующей деревянной (1783). Работы начаты в 1842, в 1847 освящена трапезная, а 3 июля 1866 - главный престол. В тёплой трапезной были Флоровский и Параскевиевский приделы. Здание представляло собой двусветный четверик под куполом, завершённым небольшой главкой, с обширной трапезной и прямоугольной апсидой с выступающей средней частью. Закрыта в советские годы, использовалась для хозяйственных нужд. Планируется восстановление.;"Николая Чудотворца; Параскевы (Пятницы) Великомученицы; Флора и Лавра";55.801005;42.358078
25982;Часовня Кирилла и Мефодия в Братилово;часовня;2002;нет данных;действ.;Владимирская обл., Собинский р-н, д. Братилово;Кирпичный часовенный столп под четырехскатной изломанной крышей.;Кирилла и Мефодия;55.990420;40.149608
26399;Часовня Иоанна Сочавского в Братонеже;часовня;нач. 2000-х;нет данных;действ.;Владимирская обл., Собинский р-н, д. Братонеж;Деревянная одноглавая часовня - четверик под крутой двускатной крышей, с крыльцом, увенчанным небольшим шатром.;Иоанна Сочавского;55.935521;39.840168
25503;Часовня Иоакима и Анны в Бродницах;часовня;2001;2001: Трофимов А. Н.;действ.;Владимирская обл., Суздальский р-н, д. Бродницы;Высокий двухуровневый каменный часовенный столб с распятием на втором уровне. Установлен в 2001 по проекту арх. А. Н. Трофимова. Приписан к Никольской церкви с. Брутово.;Иоакима и Анны;56.225774;40.412369
23611;Церковь Николая Чудотворца в Брутово;церковь;не позже XV в.;нет данных;действ.;Владимирская обл., Суздальский р-н, c. Брутово;Кирпичная церковь с декором в формах классицизма, построенная в 1802. Двусветный четверик, перекрытый купольным сводом, с трапезной и трехъярусной колокольней. К трапезной в 1850 пристроены Тихвинский и Борисоглебский приделы. Закрыта не позже 1930-х, но избежала серьезных разрушений. В 2000-х отремонтирована.;"Николая Чудотворца; Бориса и Глеба; Иконы Божией Матери Тихвинская";56.267350;40.375770
28040;Часовня Троицы Живоначальной в Брызгалово;часовня;1990-е;нет данных;действ.;Владимирская обл., Камешковский р-н, д. Брызгалово, у д. 31;Деревенская часовня-столп, выстроенная в 1990-е местными жителями. Невысокий квадратный в плане объём имеет четырёхскатное покрытие с маленькой шарообразной главкой, несущей крест. Ниже пояска, охватывающего столп с четырёх сторон, выложены декоративные ниши, а выше его - более глубокие ниши-киоты.;Троицы Живоначальной;56.423581;41.083748
13308;Церковь Николая Чудотворца в Бутылицах;церковь;не позже XVI в.;нет данных;действ.;Владимирская обл., Меленковский р-н, с. Бутылицы;Кирпичная церковь, сооружённая в 1835. Трапезная с Ильинским и Фроло-Лаврским приделами расширена в 1869, в 1890-1892 храм отремонтирован после пожара. В 1930-х закрыта, венчания сломаны. В 1990 возвращена верующим, ремонтируется, сооружён новый купол.;"Николая Чудотворца; Флора и Лавра; Илии Пророка";55.520612;41.496634
13220;Часовня Иконы Божией Матери Казанская в Бынино;часовня;не позже XIX в.;нет данных;действ.;Владимирская обл., Киржачский р-н, д. Бынино;"Кирпичная кубическая ""входная"" часовня с главкой, сооружённая в 2000-х на основе прежнего здания.";Иконы Божией Матери Казанская;55.955000;38.835000
25981;Часовня Николая Чудотворца в деревне Вал;часовня;2010-е;нет данных;действ.;Владимирская обл., Собинский р-н, д. Вал;Каменная входная часовня - четверик под четырехскатной крышей.;Николая Чудотворца;56.024381;40.168594
13221;Церковь Николая II Царя-страстотерпца в Василево;церковь;2-я пол. 2000-х;нет данных;действ.;Владимирская обл., Киржачский р-н, д. Василево;Небольшая кирпичная церковь простой архитектуры, в целом сооружённая во 2-й пол. 2000-х. Кубическая постройка под высокой кровлей с главкой, со звонницей над притвором. Епархии не передана.;Николая II Царя-страстотерпца;56.220650;38.759000
5297;Церковь Илии Пророка в Васильково;церковь;;нет данных;сохр.;Владимирская обл., Суздальский р-н, с. Васильково;;Илии Пророка;56.298320;40.568940
13780;Часовня в Ваулово;часовня;2000-е;нет данных;действ.;Владимирская обл., Кольчугинский р-н, с. Ваулово;Деревянная кубическая одноглавая часовня, построенная в 2000-х в деревне, прежде входившей в приход Покровского-Вольгинского погоста.;;56.130725;39.283232
27117;Церковь Благовещения Пресвятой Богородицы в Великово;церковь;не позже нач. XVII в.;2000-е: Хрипков В. М. – интерьеры, внутренний/внешний декор;действ.;Владимирская обл., Ковровский р-н, с. Великово;В 1628 в селе упоминается деревянная Благовещенская церковь с Никольским, Леонтьевским и Ильинским приделами. Настоящая каменная церковь с тёплым Никольским приделом построена на средства прихожан вместо прежней деревянной двухпрестольной церкви того же посвящения. Представляет собой трёхсветный пятиглавый четверик с трапезной и восьмигранной шатровой колокольней. Закрыта в 1939, здание передано под культурно-просветительские цели, позднее использовалось для хозяйственных нужд. Заброшена, частично руинирована, сломаны завершения. В нач. 2000-х возвращена верующим, восстанавливается.;"Благовещения Пресвятой Богородицы; Николая Чудотворца";56.241620;41.279429
18915;Церковь Елисаветы Феодоровны Преподобномученицы в Великодворском;церковь;ок. 1920;нет данных;действ.;Владимирская обл., Гусь-Хрустальный р-н, пос. Великодворский, ул. Театральная, 12;Церковь в поселке Великодворского стекольного завода сооружена ок. 1920 путем реконструкции кирпичной часовни кон. XIX в., к которой пристроили прямоугольный деревянный сруб храма, увенчанный главкой. В 1922 закрыта, была занята складом, школой. В 1992 возвращена верующим, освящена как Елизаветинская. В 2000-х расширена кирпичными пристройками, сооружена колокольня.;Елисаветы Феодоровны Преподобномученицы;55.249428;40.666728
10670;Церковь Параскевы (Пятницы) в Великодворье;церковь;не позже 1-й пол. XVII в.;2000-е: Соколов А. М. – интерьеры, внутренний/внешний декор (росписи);действ.;Владимирская обл., Гусь-Хрустальный р-н, с. Великодворье;Деревянная Пятницкая церковь с Введенским приделом, построенная в 1783, сгорела в 1918 или 1920. В 1924 на ее месте была построена новая небольшая деревянная церковь. Одноглавый четверик простой архитектуры с трапезной. Не закрывалась, в 1990-х пристроена колокольня.;"Параскевы (Пятницы); Введения Пресвятой Богородицы во Храм";55.224970;40.642600
3705;Церковь Иконы Божией Матери Смоленская в Веретьево;церковь;;нет данных;действ.;Владимирская обл., Камешковский р-н, ур. Веретьево;Церкви Николая Чудотворца (холодная) и Ильи Пророка (теплая) на Веретевском погосте известны деревянными с XVI в. Принадлежали Суздальскому Покровскому монастырю. В 1802 разобраны, и вместо них тщанием прихожан построена каменная двухэтажная трёхпрестольная пятиглавая церковь с высокой колокольней в связи, освященная в честь Смоленской иконы Божией Матери. Вверху главный Смоленский престол с Ильинским приделом, внизу Никольский придел. Закрыта в конце 1920-х – нач. 1930-х. Погост полностью обезлюден, церковь разграблена и сожжена. В 2010-х началось восстановление храма силами предпринимателя и политика Александра Геннадьевича Шишкина. Церковь освящена великим чином 10 августа 2025.;"Иконы Божией Матери Смоленская; Николая Чудотворца; Илии Пророка";56.464100;40.789700
24273;Часовня Варвары Великомученицы в Варварином Поле;часовня;2012;нет данных;действ.;"Владимирская обл., Судогодский р-н, д. Веригино, СНТ ""Варварино Поле""";Небольшая деревянная часовня, построенная в 2012-2013 в дачном поселке как памятник пострадавшим при Чернобыльской аварии и ликвидации ее последствий. Четверик под четырехскатной кровлей с главкой. Приписана к храму в Головино.;Варвары Великомученицы;55.961355;40.558115
28994;Церковь Иконы Божией Матери Казанская в Верхозерье;церковь;не позже 1-й четв. XVII в.;нет данных;действ.;Владимирская обл., Меленковский р-н, с. Верхозерье, ул. Батурлинская;Каменная двухпрестольная церковь в с. Верхозерье, стоявшем на низменном берегу Урвановского озера, была построена в 1814-1825 вместо сгоревшей в 1812 деревянной. Имела Никольский придел, освящённый в 1821. В 1857, после пожара, село перенесено на противоположный высокий берег, а храм оставался на старом месте, что в течение десятилетий создавало большие неудобства. Новая церковь в центре села выстроена на средства прихожан за три года, освящена 16 авг. 1904. Крупное кирпичное здание в русском эклектичном стиле, четверик, венчавшийся восьмериком с шатровым завершением, трапезной соединён с четырехъярусной колокольней. Закрыта в 1938 после ареста священника. Использовалось под склад, потом пустовала, завершения обрушились. Расчистка силами энтузиастов начата в 2009, в апр. 2016 подняты колокола. Готов проект восстановления.;"Иконы Божией Матери Казанская; Николая Чудотворца";55.406230;41.981855
10664;Церковь Александра Невского в Веси;церковь;1867;нет данных;действ.;Владимирская обл., Суздальский р-н, с. Весь;Небольшая кирпичная церковь на сельском кладбище. Устроена в 1867 в память спасения Александра II от покушения Каракозова в здании кирпичной часовни постройки 1865. Закрыта не позже 1930-х, к 1980-м заброшена. Отремонтирована в 1990-х в упрощённых формах местной общиной РПАЦ. В 2010 изъята у общины РПАЦ и передана Владимирской Епархии.Храм приписан к Покровскому женскому монастырю. Освящен 10 сент. 2017.;Александра Невского;56.482800;40.361100
10471;Церковь Троицы Живоначальной в Веси;церковь;не позже XVIII в.;нет данных;сохр.;Владимирская обл., Суздальский р-н, с. Весь;Большой двухэтажный пятиглавый храм с небольшой трапезной и колокольней, оконченный постройкой в 1817. В нижнем этаже тёплый Михаило-Архангельский придел (1769). Закрыт не позже 1930-х, сломана колокольня. В настоящее время пустует, в тяжёлом состоянии. Первый после закрытия молебен состоялся 21 нояб. 2017.;"Троицы Живоначальной; Михаила Архангела";56.488850;40.358200
29259;Часовня Иконы Божией Матери Владимирская в Ветчах;часовня;1890;нет данных;действ.;Владимирская обл., Петушинский р-н, д. Ветчи, ул. Зеленая, напротив д. 49;По местным сведениям, часовня в д. Ветчи, входившей в Аргуновский приход, была построена в 1890, в советские годы сломана. Новая столпообразная шестигранная одноглавая входная часовня сооружена на средства деревенских жителей в 2017, освящена 24 сент. того же года.;Иконы Божией Матери Владимирская;55.959814;39.005262
30612;Церковь Вознесения Господня в Вешках;церковь;не позже 1-й пол. XVII в. (2-й пол. XVI в. (?));нет данных;действ.;Владимирская обл., Гусь-Хрустальный р-н, с. Вёшки;Деревянная Вознесенская церковь впервые отмечена в переписных книгах периода 1637-1647. Кирпичная одноглавая двухпрестольная церковь в классическом стиле, с колокольней со шпилем, заложена в 1832 вместо сгоревшей предшествующей. Освящена в 1850. Тёплый придел Казанский. Закрыта в 1940, обращена в склад, затем в мастерские. Возвращена верующим в 2000, восстанавливается. Приписана к Варваринской церкви в Гусь-Хрустальном.;"Вознесения Господня; Иконы Божией Матери Казанская";55.667891;40.861856
14742;Церковь Спаса Нерукотворного Образа в Войново;церковь;1926;нет данных;действ.;Владимирская обл., Меленковский р-н, с. Войново;Деревянная церковь, обшитая тёсом. Сооружена в 1926 в дальней деревне соборного прихода Меленок. Небольшой прямоугольный объём с восьмигранным куполом и колокольней. Практически не закрывалась.;Спаса Нерукотворного Образа;55.265100;41.626000
10038;Николо-Волосовский женский монастырь;монастырь;не позже XV в.;нет данных;действ.;Владимирская обл., Собинский р-н, с. Волосово;Монастырь известен с 1504, первоначально мужской, большая часть построек сооружена в кон. XVII - XVIII вв. В 1764 закрыт, в 1775 восстановлен. С 1843 приписан к Боголюбовскому монастырю, братии практически не было. В 1909 преобразован в женский. Закрыт в 1920-х. Помимо церквей уцелели кельи (1763) и часть ограды с башнями (1763). Вновь открыт как женский в 1993 как скит суздальского Покровского монастыря, с 1996 самостоятельный.;;56.172548;40.161980
10039;Собор Николая Чудотворца в Николо-Волосовском монастыре;церковь;не позже XV в.;1727: Ослопов И. К.;действ.;Владимирская обл., Собинский р-н, с. Волосово;Кирпичный храм в духе провинциального барокко, сооруженный в 1727 на месте старого каменного храма. Крупное трёхапсидное здание типа восьмерик на четверике с небольшой трапезной и шатровой колокольней. Закрыт в не позже 1930-х, использовался как склад. В 1990-х отремонтирован.;Николая Чудотворца;56.172300;40.161820
10041;Церковь Покрова Пресвятой Богородицы в Николо-Волосовском монастыре;церковь;не позже 1-й пол. XVIII в.;нет данных;действ.;Владимирская обл., Собинский р-н, с. Волосово;Кирпичный надвратный храм на южными Святыми воротами монастыря, сооруженный в 1763, возможно - вместо старого. Одноглавый четверик с небольшой трапезной, интересный сочетанием в декоре приемов барокко и традиционного зодчества. Уже в XIX в. для богослужений не использовался. Отремонтирован в нач. 2000-х.;Покрова Пресвятой Богородицы;56.171950;40.162200
10040;Церковь Сергия Радонежского в Николо-Волосовском монастыре;церковь;не позже 1-й пол. XVII в.;нет данных;действ.;Владимирская обл., Собинский р-н, с. Волосово;Кирпичная церковь с трапезной палатой, поставленная к северу от Никольского собора в 3-й четв. XVII в. Здание на подклете состоит из обширной одностолпной трапезной, к которой с юго-востока примыкает четверик храма, увенчанный небольшим декоративным шатром. Второй престол Константина и Елены. В 1990-х открыта, отремонтирована.;"Сергия Радонежского; Константина и Елены";56.172500;40.161800
30057;Часовня Николая Чудотворца в Волосово;часовня;2006;нет данных;действ.;Владимирская обл., Собинский р-н, с. Волосово;Деревянная часовня на чтимом источнике, комплекс из шатровой сени и клети под двухскатной крышей с крестом на четырёхгранной пирамиде. Решение о строительстве принято в 2006 по инициативе Николо-Волосовского монастыря, заложена осенью 2014, освящена в 2015.;Николая Чудотворца;56.168356;40.169283
1287;Церковь Бориса и Глеба в Волохово;церковь;не позже XVI в.;нет данных;действ.;Владимирская обл., Александровский р-н, с. Волохово;Существовавшая в XVI в. церковь после Смуты была восстановлена в 1700. Кирпичная церковь построена на средства Баскаковых, хороший образец московского классицизма. В трапезной приделы Алексия Митрополита и вмч. Варвары. Закрыта в 1930-х, открыта в нач. 2000-х.;"Бориса и Глеба; Варвары Великомученицы; Алексия, митрополита Московского";56.391900;38.517100
10657;Церковь Вознесения Господня в Волствиново;церковь;не позже XV в.;нет данных;сохр.;Владимирская обл., Юрьев-Польский р-н, с. Волствиново;Кирпичная церковь в стиле классицизма, построенная в 1830. Здание близкое к образцовым проектам. Однокупольный четверик с трапезной с Димитриевским приделом и колокольней. В настоящее время заброшена.;"Вознесения Господня; Димитрия Солунского";56.590700;39.580000
24366;Часовня Луки, архиепископа Крымского, в Вольгинском;часовня;2010;нет данных;действ.;Владимирская обл., Петушинский р-н, пос. Вольгинский, ул. Новосеменковская;Крупная кирпичная часовня типа восьмерик на четверике, поставленная на цокольном этаже и завершенная куполом с главкой. Сооружена в 2010-2012, приписана к Тихвинской церкви в Иваново.;Луки, архиепископа Крымского;55.950212;39.239803
17075;Церковь Троицы Живоначальной в Вольной Артемовке;церковь;2011;нет данных;действ.;Владимирская обл., Судогодский р-н, д. Вольная Артемовка;Небольшая деревянная церковь под двускатной кровлей с главкой, с прямоугольными алтарем и притвором. Построена в 2011-2012.;Троицы Живоначальной;55.845700;40.782400
9160;Церковь Троицы Живоначальной в Ворше;церковь;;нет данных;действ.;Владимирская обл., Собинский р-н, с. Ворша;;Троицы Живоначальной;56.049630;40.074155
5454;Церковь Воскресения Христова в Воскресенской слободке;церковь;;нет данных;сохр.;Владимирская обл., Суздальский р-н, с. Воскресенская слободка;Каменная трёхпрестольная церковь с двухэтажной трапезной и колокольней. Основной объем — восьмерик на четверике. Хороший образец нарышкинского барокко. В советское время закрыта, разрушается. В авг. 2021 начаты восстановительные работы.;Воскресения Христова;56.319900;40.637300
8328;Церковь Воскресения Христова в Воскресенском;церковь;1706;нет данных;сохр.;Владимирская обл., Камешковский р-н, с. Воскресенское;Кирпичная церковь типа восьмерик на четверике с трапезной и колокольней. Построена в 1794 на средства генеральши М. Ф. Брылкиной, трапезная с Покровским и Предтеченским приделами расширена в 1868. К 1990-м заброшена, с 2000-х медленно ремонтируется.;"Воскресения Христова; Рождества Иоанна Предтечи; Покрова Пресвятой Богородицы";56.222200;41.037800
20867;Церковь Воскресения Христова в Воскресенском;церковь;не позже XVI в.;нет данных;действ.;Владимирская обл., Петушинский р-н, д. Воскресенье;Кирпичная церковь, построенная в 1818-1827 в формах классицизма. Однокупольный храм с боковыми портиками в антах, двухпридельной трапезной и трехъярусной колокольней. Приделы в трапезной Казанский и Никольский. Окончательно закрыта в 1956. Община восстановлена в 2002, реставрируется с сер. 2000-х при помощи московского вагоностроительного завода им. Войтовича.;"Воскресения Христова; Николая Чудотворца; Иконы Божией Матери Казанская";55.969850;39.100100
11350;Церковь Иконы Божией Матери Иерусалимская во Воспушке;церковь;1-я пол. XVIII в.;нет данных;действ.;Владимирская обл., Петушинский р-н, д. Воспушка;Кирпичный храм, сооружённый в 1771 на средства помещика А. Д. Сабурова. Хороший образец елизаветинского барокко, церковь типа восьмерик на четверике с боковыми экседрами, перекрытая куполом с люкарнами, с трапезной и невысокой колокольней. К трапезной пристроены приделы Иоанна Многострадального (1842) и Никольский (1901). Закрыта в 1935, долгое время занята мастерскими. В 2004 возвращена верующим, реставрируется.;"Иконы Божией Матери Иерусалимская; Николая Чудотворца; Иоанна Многострадального";56.073400;39.449300
29046;Церковь Воскресения Христова в Воютино (новая);церковь;2008;нет данных;действ.;Владимирская обл., Меленковский р-н, с. Воютино, ул. Поповка;Клетская церковь, строившаяся с 2009 на новом месте взамен одноимённого храма, сгоревшего в 2008. Службы начаты в 2013.;Воскресения Христова;55.250679;41.834042
8336;Церковь Михаила Архангела во Второво;церковь;1689;нет данных;действ.;Владимирская обл., Камешковский р-н, с. Второво;Кирпичная церковь, построенная в 1689 на средства окольничего Н. И. Акинфова. Одноглавый бесстолпный четверик с трапезной и колокольней. Позже перестраивалась, завершена купольной кровлей, перестроен верх шатровой колокольни. В трапезной Пантелеймоновский и Никольский приделы. Вероятно, не закрывалась.;"Михаила Архангела; Николая Чудотворца; Пантелеимона Целителя";56.261700;40.810000
23610;Церковь Воздвижения Честного Креста Господня в Вышеславском;церковь;не позже XVII в.;нет данных;сохр.;Владимирская обл., Суздальский р-н, c. Вышеславское;Кирпичная церковь, построенная в 1806 как летний храм прихода. Двусветный пятиглавый четверик с декором в духе традиционного зодчества с небольшой трапезной. Колокольня пристроена в 1876. Закрыта не позже 1930-х, сломана колокольня. Пустует.;Воздвижения Честного Креста Господня;56.367670;40.273600
23609;Церковь Николая Чудотворца в Вышеславском;церковь;не позже 1816;нет данных;сохр.;Владимирская обл., Суздальский р-н, c. Вышеславское;Кирпичная церковь, построенная в 1816 как зимний храм прихода. Односветный четверик с трапезной, в нач. ХХ в. расширенный боковыми пристройками. Закрыта не позже 1930-х, долгое время использовалась как склад, сейчас заброшена.;Николая Чудотворца;56.367300;40.273500
5845;Благовещенский Вязниковский женский монастырь;монастырь;1643;нет данных;действ.;Владимирская обл., г. Вязники, Музейный пер.;Основан как мужской монастырь в 1643 на месте старого убогого дома. Особым богатством и многолюдностью не отличался. В 1916 преобразован в женский, в 1921 закрыт, постройки заняты под жилье. Вновь открыт в 2000 как женский.;;56.248300;42.146000
5846;Собор Благовещения Пресвятой Богородицы в Благовещенском Вязниковском монастыре;церковь;1643;нет данных;действ.;Владимирская обл., г. Вязники, Музейный пер.;Кирпичный пятиглавый храм на подклете с обходной галереей и шатровой колокольней на северо-западном углу, характерный образец гороховецкой школы. Выстроен в 1683-1689 попечением игумена Моисея. В подклете зимний Трёхсвятский храм с Антипьевским приделом. Закрыт не позже 1930-х. Во 2-й пол. ХХ в. занят музеем. Возвращён верующим поэтапно в 1990-х.;"Благовещения Пресвятой Богородицы; Антипы, епископа Пергамского; Трех Святителей Великих";56.247942;42.145876
5847;Церковь Всех Святых в Благовещенском Вязниковском монастыре;церковь;не позже XVIII в.;нет данных;действ.;Владимирская обл., г. Вязники, Музейный пер.;Небольшая кирпичная церковь в стиле классицизма типа восьмерик на четверике. Сооружена в 1794 над северными воротами монастыря. В 1980-х отреставрирована, в 1990-х возвращена верующим. Для регулярных богослужений не используется.;Всех Святых;56.248800;42.146200
5849;Собор Воздвижения Честного Креста Господня в Вязниках;церковь;1794;нет данных;действ.;Владимирская обл., г. Вязники, ул. Горького, 10;Кирпичная кладбищенская церковь, построенная в 1794 на средства купца В. И. Водовозова, приписанная к Троицкой. Здание типа восьмерик на четверике. Трапезная с приделами Иустина Философа и Черниговских Чудотворцев и колокольня пристроены в 1863. В годы советской власти не закрывалась. В настоящее время - кафедральный собор образованной в 2013 Муромской епархии.;"Воздвижения Честного Креста Господня; Михаила и Феодора Черниговских; Иустина Философа";56.237605;42.175058
5851;Церковь Александра Невского при тюрьме в Вязниках;церковь;1885;нет данных;сохр.;Владимирская обл., г. Вязники, ул. Пролетарская, 28А;Небольшая кирпичная церковь при тюремном замке. Была выстроена в 1885 на средства купца Н. Никитина. Закрыта не позже 1920-х, венчания сломаны. В настоящее время занята отделом дознания РОВД.;Александра Невского;56.244600;42.156500
5844;Церковь Введения Пресвятой Богородицы во Храм в Вязниках;церковь;нач. 1630-х;нет данных;действ.;Владимирская обл., г. Вязники, ул. Пролетарская Горка, 3;Кирпичный храм типа восьмерик на четверике в псевдорусском стиле с боковыми приделами, сооружённый в кон. XIX - нач. ХХ вв. на месте здания кон. XVII в. Шатровая колокольня 1884. Приделы Ильинский (в главном храме), Усекновения Предтечи и Владимирский. Закрыт не позже 1930-х, венчания сломаны, занят спортивной школой. Возвращён верующим в 2007.;"Введения Пресвятой Богородицы во Храм; Иконы Божией Матери Владимирская; Усекновения Главы Иоанна Предтечи; Илии Пророка";56.243600;42.159700
5854;Церковь Иннокентия, митрополита Московского, в Нововязниках;церковь;нач. 2000-х;нет данных;действ.;Владимирская обл., г. Вязники, мкрн. Нововязники;Новая церковь, сооруженная в нач. 2000-х.;Иннокентия, митрополита Московского;56.199900;42.164400
5850;Церковь Покрова Пресвятой Богородицы в Вязниках;церковь;1806;нет данных;действ.;Владимирская обл., г. Вязники, ул. Мочалова, 2А;Кирпичная церковь типа восьмерик на четверике с трапезной и колокольней. Построена в 1806 на городском кладбище на средства купца В. И. Водовозова. В трапезной были приделы Симеона и Анны и Иоанна Златоуста. Закрыта в 1930. Возвращена верующим в 1989, отремонтирована.;"Покрова Пресвятой Богородицы; Иоанна Златоуста; Симеона и Анны";56.241900;42.146900
5856;Церковь Рождества Христова в Вязниковской колонии;церковь;1994;нет данных;действ.;Владимирская обл., г. Вязники, ул. Железнодорожная, 37;Церковь на территории колонии строгого режима (ИК-4). Построена в 1997 вместо прежде существовавшей молитвенной комнаты.;Рождества Христова;;
5848;Церковь Троицы Живоначальной в Вязниках;церковь;не позже XVI в.;нет данных;действ.;Владимирская обл., г. Вязники, ул. Киселёва, 38;Кирпичный храм в духе традиционного зодчества, выстроенный в 1756-1761. Бесстолпный пятиглавый четверик с трапезной и отдельно стоящей шатровой колокольней. В главном храме был Петропавловский придел, в трапезной Христорождественский и Михаило-Архангельский. Закрыт не позже 1930-х. Возвращен верующим в 1990-х, отремонтирован.;"Троицы Живоначальной; Михаила Архангела; Петра и Павла; Рождества Христова";56.240900;42.165000
5855;Часовня в Ефимьево;часовня;кон. XIX - нач. ХХ вв.;нет данных;действ.;Владимирская обл., г. Вязники, мкрн. Ефимьево;Кирпичная кубическая одноглавая часовня кон. XIX - нач. ХХ вв. Была приписана к Троицкой церкви Вязников. В настоящее время отремонтирована.;;56.224396;42.139671
5843;Часовня Иконы Божией Матери Казанская в Вязниках;часовня;1990-х;нет данных;действ.;Владимирская обл., г. Вязники, Соборная пл., 25;Небольшая приземистая шатровая постройка в псевдорусском стиле, одно из четырех симметричных зданий, стоявших по углам ограды Казанского собора. В 1990-х освящена как часовня, отремонтирована.;Иконы Божией Матери Казанская;56.247150;42.159500
12720;Церковь Богоявления Господня в Гавриловском;церковь;;нет данных;сохр.;Владимирская обл., Суздальский р-н, с. Гавриловское;Зимняя кирпичная пятиглавая церковь постройки 1823. В советский период завершения снесены, сильно перестроена, использовалась в хозяйственных целях. В настоящее время принадлежит приходу, реставрируется.;Богоявления Господня;56.391650;40.275300
12719;Церковь Зачатия Иоанна Предтечи в Гавриловском;церковь;;нет данных;действ.;Владимирская обл., Суздальский р-н, с. Гавриловское;Летняя кирпичная однокупольная церковь типа восьмерик на четверике, с колокольней. Построена в 1799. В советское время закрыта, использовалась для колхозных нужд, колокольня утрачена. Вновь открыта а 1992.;Зачатия Иоанна Предтечи;56.391900;40.275200
8333;Церковь Троицы Живоначальной в Гатихе;церковь;не позже XVI в.;нет данных;действ.;Владимирская обл., Камешковский р-н, с. Гатиха, ул. Рабочая;Большой кирпичный храм в русско-византийском стиле, сооружённый в 1850-1868 вместо старого каменного здания 1790-1802. Пятиглавый четверик обширной трапезной соединён с многоярусной колокольней. В тёплой трапезной Покровский и Никольский приделы. Во 2-й пол. ХХ в. был занят мастерскими, потом заброшен. В настоящее время медленно ремонтируется.;"Троицы Живоначальной; Николая Чудотворца; Покрова Пресвятой Богородицы";56.220393;40.860270
3748;Церковь Преображения Господня на Сарниковском погосте;церковь;;нет данных;действ.;Владимирская обл., Судогодский р-н, д. Гладышево, д. 46;;"Преображения Господня; Прохора и Вассиана Ястребских";55.819958;41.117381
15977;Церковь Богоявления Господня в Глебовском;церковь;не позже XVI в.;нет данных;сохр.;Владимирская обл., Суздальский р-н, с. Глебовское;Кирпичная церковь, построенная в 1790-1796 на средства прихожан, государственных крестьян. Двусветный одноапсидный четверик, перекрытый высоким купольным сводом с главкой, с полукруглым алтарем, западным притвором, шатровой колокольней и теплым северным Покровским приделом, пристроенным в 1811-1814. Декор в духе традиционного зодчества. Закрыта в 1931, сломана колокольня. К 1990-м в сложном техническом состоянии, восстановительные работы начат в кон. 2000-х.;"Богоявления Господня; Покрова Пресвятой Богородицы";56.411880;40.498700
10612;Церковь Николая Чудотворца в Глотово (каменная);церковь;не позже нач. XVII в.;нет данных;сохр.;Владимирская обл., Юрьев-Польский р-н, ур. Глотово (2 км СЗ с. Федоровское);Небольшая кирпичная церковь в псевдорусском стиле, построенная в 1891-1892. Одноглавый четверик с трапезной и колокольней. Была приписана к храму в Федоровском. В настоящее время заброшена.;Николая Чудотворца;56.646175;39.551600
21980;Церковь Илии Пророка в Глухово;церковь;не позже XV в.;нет данных;сохр.;Владимирская обл., Собинский р-н, с. Глухово;Кирпичная церковь в формах классицизма, оконченная постройкой в 1851. Четверик с боковыми приделами, увенчанный крупной ротондой, с трапезной и четырёхъярусной колокольней. Боковые приделы Сергиевский и Никольский, в трапезной Покровский и Боголюбский приделы. Закрыта не позже 1930-х. Восстановительные работы начаты в нач. 2010-х.;"Илии Пророка; Иконы Божией Матери Боголюбская; Николая Чудотворца; Покрова Пресвятой Богородицы; Сергия Радонежского";56.127070;39.838240
15979;Церковь Иоанна и Феодора, епископов Суздальских, в Гнездилово;церковь;не позже XVI в.;нет данных;сохр.;Владимирская обл., Суздальский р-н, с. Гнездилово;Кирпичная зимняя церковь в стиле позднего классицизма, построенная в 1857. Четверик с полукруглым алтарём и притвором. Венчания сломаны, перекрытия обрушились. Медленно ремонтируется.;Иоанна и Феодора, епископов Суздальских;56.362650;40.374620
15978;Церковь Николая Чудотворца в Гнездилово;церковь;не позже XVI в.;нет данных;сохр.;Владимирская обл., Суздальский р-н, с. Гнездилово;Кирпичная летняя церковь с декором в духе классицизма. Построена в 1824 на средства прихожан, государственных крестьян. Трёхсветный одноглавый четверик с полукруглым алтарём и притвором. Закрыта не позже 1930-х, сломана колокольня. Пустует.;Николая Чудотворца;56.362600;40.374880
15980;Часовня в Гнездилово;часовня;;нет данных;действ.;Владимирская обл., Суздальский р-н, с. Гнездилово;Глухой кирпичный часовенный столп-памятник простой архитектуры. Сооружён в память сельчан, погибших в Великой Отечественной войне.;;56.363000;40.375550
1289;Церковь Михаила Архангела в Годуново;церковь;не позже XVI в.;нет данных;действ.;Владимирская обл., Александровский р-н, с. Годуново;Церковь типа восьмерик на четверике в стиле классицизма, построена в основном на средства И. И. Супонева. В трапезной приделы Иннокентия Иркутского (1809, первый придел с таким посвящением в России) и Казанский (1879). Закрыта в 1930-х, в 1965 сломана колокольня. В 1998 отдана верующим, начат ремонт.;"Михаила Архангела; Иконы Божией Матери Казанская; Иннокентия, епископа Иркутского";56.487800;39.033400
23608;Церковь Воскресения Христова в Головенцыно;церковь;не позже XVII в.;нет данных;сохр.;Владимирская обл., Суздальский р-н, c. Головенцево;Кирпичная церковь, построенная в 1807 на средства Я. М. Федосеева. Двусветный четверик, завершенный массивным восьмериком, с трапезной, в которой помещался Покровский придел. Закрыта не позже 1930-х, сломана колокольня. Пустует, в сложном техническом состоянии. В 2024 начаты восстановительные работы за счет региональных средств.;"Воскресения Христова; Покрова Пресвятой Богородицы";56.316580;40.151000
30609;Церковь Михаила Архангела в Головино;церковь;2015;нет данных;действ.;Владимирская обл., Петушинский р-н, д. Головино, ул. Александра Князева;Деревянная церковь, четверик под четырёхскатной крышей, с пятигранной апсидой, с западным притвором. Звонница отдельностоящая. Заложена в 2015 в связи с невозможностью восстановления Троицкого храма. Освящена в дек. 2020.;Михаила Архангела;56.023819;39.186469
9002;;;;;;;;;;
13222;Часовня в Головино;часовня;2009;нет данных;действ.;Владимирская обл., Киржачский р-н, д. Головино;Кирпичная кубическая глухая часовня с главкой, сооружённая в 2009.;;55.965850;38.770450
19005;Церковь Амвросия Оптинского в Головино;церковь;2005;2018: Анурин Ю. Е. – интерьеры, внутренний/внешний декор (росписи);действ.;Владимирская обл., Судогодский р-н, пос. Головино, ул. Советская;Небольшая кирпичная церковь с асимметричной композицией, сооружённая в 2005-2009 и освящённая 17 окт. 2009. Одноглавый четверик с массивной четверогранной шатровой колокольней, пристроенной с северной стороны.;Амвросия Оптинского;55.948470;40.442900
19004;Церковь Амвросия Оптинского в Головино (временная);церковь;1997;нет данных;сохр.;Владимирская обл., Судогодский р-н, пос. Головино;Церковь, устроенная в приспособленном каменно-деревянном здании бывшего клуба, внешне выделенная главкой. Освящена 23 окт. 1997. После постройки каменного храма для регулярных богослужений не используется.;Амвросия Оптинского;;
23001;Церковь Преображения Господня в Горицах;церковь;не позже XV в.;нет данных;действ.;Владимирская обл., Суздальский р-н, c. Горицы, ул. Преображенская, 18А;Кирпичная церковь в формах позднего классицизма, построенная в 1838-1857. Четверик, увенчанный купольной ротондой, с трапезной, перестроенной в 1875 с устройством Никольского придела, и трёхъярусной колокольней. В 1892-1893 на средства Г. Г. Исакова трапезная вновь расширена для помещения тёплого придела Трёх Святителей Великих. Закрыта не позже 1930-х. В 1990-х возвращена верующим, ремонтируется.;"Преображения Господня; Трех Святителей Великих; Николая Чудотворца";56.219031;40.331161
10497;Церковь Успения Пресвятой Богородицы в Горке;церковь;2004;строится: Трофимов А. Н.;действ.;Владимирская обл., Киржачский р-н, пос. Горка;Кирпичная однокупольная церковь с небольшой трапезной и колокольней, строящаяся с 2004 по образцу церкви соседнего села Семёновского, разрушенной в 1930-х.;Успения Пресвятой Богородицы;56.250200;38.796400
1291;Церковь Троицы Живоначальной в Горках;церковь;не позже XVI в.;нет данных;сохр.;Владимирская обл., Александровский р-н, с. Горки;Типовая церковь в стиле классицизма, построенная в 1827. В трапезной помещался Петропавловский придел. Заброшена, колокольня сломана. В настоящее врнемя внутри разрушенной трапезной воздвигнута деревянная часовня.;"Троицы Живоначальной; Петра и Павла";56.443100;38.960600
24354;Церковь Троицы Живоначальной в Горках;церковь;1679;нет данных;действ.;Владимирская обл., Камешковский р-н, с. Горки;Кирпичная церковь, построенная в 1801 при помощи помещиков Левашевых. Двусветный четверик, завершенный мощной ротондой, с прямоугольной апсидой, обширной трапезной, расширенной в 1864, и трехъярусной колокольней под куполом с шпилем. Приделы в трапезной Корсунский и Димитриевский. Закрыта в 1938, открыта в 1946 и более не закрывалась.;"Троицы Живоначальной; Димитрия Солунского; Иконы Божией Матери Корсунская";56.298287;41.006172
5302;Богородице-Рождественский Владимирский мужской монастырь;монастырь;1191;нет данных;действ.;Владимирская обл., г. Владимир, ул. Большая Московская, 68;Основан великим князем Всеволодом Большое Гнездо в 1191. Закрыт в июле 1918, на территории разместились части ВЧК (ОППУ, КГБ). Возрожден в 1991.;;56.131370;40.414000
5303;Собор Рождества Пресвятой Богородицы в Богородице-Рождественском Владимирском монастыре;церковь;;;действ.;Владимирская обл., г. Владимир, ул. Большая Московская, 68;;Рождества Пресвятой Богородицы;56.131200;40.415000
5305;Церковь Александра Невского в Богородице-Рождественском Владимирском монастыре;церковь;;нет данных;действ.;Владимирская обл., г. Владимир, ул. Большая Московская, 68;;Александра Невского;56.131000;40.414500
17139;Церковь Рождества Иоанна Предтечи в Богородице-Рождественском Владимирском монастыре;церковь;2007;2011: Шахов С. П. – интерьеры, внутренний/внешний декор (иконостас );действ.;Владимирская обл., г. Владимир, ул. Большая Московская, 68-70;Кирпичная одноглавая церковь над восточными вратами монастыря, встроенная в келейный корпус. Заложена в 2007, освящена 1 янв. 2011.;Рождества Иоанна Предтечи;56.131900;40.414400
5304;Церковь Рождества Христова в Богородице-Рождественском Владимирском монастыре;церковь;;1866: Артлебен Н. А.;действ.;Владимирская обл., г. Владимир, ул. Большая Московская, 68;;"Рождества Христова; Иконы Божией Матери Иверская";56.131517;40.413227
5306;Церковь Феофана Затворника в Богородице-Рождественском Владимирском монастыре (семинарская);церковь;;нет данных;действ.;Владимирская обл., г. Владимир, ул. Большая Московская, 68;;Феофана Затворника;56.130900;40.413500
5307;Часовня Николая Чудотворца в Богородице-Рождественском Владимирском монастыре;часовня;;нет данных;действ.;Владимирская обл., г. Владимир, ул. Большая Московская, 68;;Николая Чудотворца;56.131804;40.413593
5308;Успенский Княгинин женский монастырь;монастырь;;нет данных;действ.;Владимирская обл., г. Владимир, Княгинин монастырь;;;56.131600;40.398800
5309;Собор Успения Пресвятой Богородицы в Успенском Княгинином монастыре;церковь;;;действ.;Владимирская обл., г. Владимир, Княгинин монастырь, 37А;;"Успения Пресвятой Богородицы; Рождества Христова; Благовещения Пресвятой Богородицы";56.131730;40.399300
5310;Церковь Иконы Божией Матери Казанская в Успенском Княгинином монастыре;церковь;;нет данных;действ.;Владимирская обл., г. Владимир, Княгинин монастырь, 37;;Иконы Божией Матери Казанская;56.131680;40.398500
5301;Собор Димитрия Солунского;церковь;;;сохр.;Владимирская обл., г. Владимир, ул. Большая Московская, 60;;Димитрия Солунского;56.129210;40.410900
5300;Собор Успения Пресвятой Богородицы;церковь;;;действ.;Владимирская обл., г. Владимир, ул. Большая Московская, 56;;Успения Пресвятой Богородицы;56.127300;40.409200
19584;Церковь Александра Невского при мужской гимназии;церковь;1841;нет данных;сохр.;Владимирская обл., г. Владимир, ул. Большая Московская, 35;Домовая церковь в здании мужской гимназии, устроенная в 1841. После революции закрыта, следов церкви не осталось. В 2002-2003 к фасаду бывшего здания гимназии пристроена двухарочная звонница как памятный знак утраченному храму.;Александра Невского;56.129800;40.408240
27277;Церковь Афанасия, епископа Ковровского, при Православной гимназии;церковь;после 2001;нет данных;действ.;Владимирская обл., г. Владимир, ул. Суздальская, 14;Домовый храм при Православной гимназии им. Афанасия Ковровского, открытой в 2001.;Афанасия, епископа Ковровского;56.139657;40.416705
19739;Церковь Владимира равноапостольного и Собора благоверных князей Владимирских на Пятницкой горке;церковь;не позже XVI в.;2016-2022: Трофимов А. Н.;действ.;Владимирская обл., г. Владимир, ул. Большая Московская, 32;Кирпичная церковь, построенная в 1770 вместо бывшей деревянной. Четверик с поясом кокошников под карнизом, увенчанный малым восьмериком, с трапезной и колокольней в стиле классицизма. Главный престол был Знаменским, в трапезной Пятницкий и Петропавловский (с 1780) приделы. Закрыта в 1929, венчания сломаны. Снесена в 1960-х. На этом месте 18 июня 2016 по проекту арх. А. Н. Трофимова заложена новая каменная церковь с новым посвящением, воспроизводящая архитектуру владимиро-суздальских храмов XVII-XVIII вв. Южный придел Пятницкий в память о прежней церкви. Освящена великим чином 28 июля 2022.;"Владимира равноапостольного; Собора благоверных князей Владимирских; Параскевы (Пятницы) Великомученицы; Петра и Павла; Иконы Божией Матери Знамение";56.127940;40.403477
5314;Церковь Владимира равноапостольного на Владимирском кладбище;церковь;;;действ.;Владимирская обл., г. Владимир, ул. Большая Нижегородская, 71А;;"Владимира равноапостольного; Адриана и Наталии; Симеона и Анны";56.142850;40.436500
5311;Церковь Вознесения Господня;церковь;;нет данных;действ.;Владимирская обл., г. Владимир, ул. Вознесенская, 14А;;"Вознесения Господня; Покрова Пресвятой Богородицы; Благовещения Пресвятой Богородицы";56.121300;40.397100
5312;Церковь Воскресения Словущего;церковь;;2001: Трофимов А. Н. (дополнительные постройки);сохр.;Владимирская обл., г. Владимир, ул. Батурина, 8А;;Воскресения Словущего;56.135954;40.409152
5313;Церковь Георгия Победоносца;церковь;1129;1980-е: Столетов И. А. – реставрация;действ.;Владимирская обл., г. Владимир, ул. Георгиевская, 6;;"Георгия Победоносца; Владимира равноапостольного";56.126900;40.402100
17289;Церковь Георгия Победоносца при Успенском соборе;церковь;1862;1862: Артлебен Н. А. – строительство по собств. проекту;действ.;Владимирская обл., г. Владимир, ул. Большая Московская, 56;Теплый храм, построенный в 1862 между Успенским собором и его колокольней. Восьмистолпная одноапсидная постройка с декором, стилизованным под владимирское зодчество XII в.;Георгия Победоносца;56.127570;40.409250
19261;Церковь Елисаветы Феодоровны Преподобномученицы при больнице скорой помощи;церковь;1913;1913-1914: Шерер Л. М. – строительство по собств. проекту;действ.;Владимирская обл., г. Владимир, ул. Горького, 5;Домовая церковь при больнице Владимирского отделения Красного Креста располагалась в западной части здания. Больница построена в память 300-летия царствующего дома Романовых, церковь заложена вместе с больницей 26 сент. 1913, освящена 14 нояб. 1914. Закрыта вскоре после революции. Здание сохранилось, занято больницей скорой помощи. В 2016 капитально отремонтировано. В 2009 церковь возобновлена в восточном крыле здания. Освящена как Елизаветинская.;Пантелеимона Целителя;56.134500;40.403000
27278;Церковь Иконы Божией Матери Владимирская при Архиерейской резиденции;церковь;1984;нет данных;действ.;Владимирская обл., г. Владимир, ул. Вишневая, 26;Домовый храм при резиденции правящего архиерея.;Иконы Божией Матери Владимирская;56.117064;40.387678
27279;Церковь Иконы Божией Матери Всех Скорбящих Радость при СИЗО-1;церковь;1826;нет данных;действ.;Владимирская обл., г. Владимир, ул. 9-го января, 5А;Церковь в главном корпусе тюремного замка существовала с 1826. Ликвидирована вскоре после революции, помещение приспособлено под камеры. Восстановлена в 1992 со старым посвящением, является домовым храмом при расположенном здесь в настоящее время Следственном изоляторе №1 УФСИН России по Владимирской области.;Иконы Божией Матери Всех Скорбящих Радость;56.126818;40.373524
13643;Церковь Иконы Божией Матери Казанская;церковь;1779;2007-2008: Трофимов А. Н.;действ.;Владимирская обл., г. Владимир, пл. Победы;Каменная церковь, освященная в 1782 и перестроенная во 2-й пол. XIX в., представляла собой двусветный четверик, завершенный декоративным пятиглавием, с трапезной и колокольней в стиле классицизма. В трапезной помещались Трехсвятский и Никольский приделы. Закрыта в 1938, венчания сломаны, перестроена в кинотеатр. Снесена в 1970, на месте церкви устроен мемориал в память Великой Отечественной войны. В 2007-2008 в непосредственной близости от старого места сооружен новый одноглавый храм, интересный как пример современной интерпретации форм домонгольского зодчества.;"Иконы Божией Матери Казанская; Николая Чудотворца; Трех Святителей Великих";56.120650;40.363800
19260;Церковь Иконы Божией Матери Казанская при городской богадельне;церковь;нач. ХХ в.;нач. ХХ в.: Жаров С. М.;сохр.;Владимирская обл., г. Владимир, ул. Большая Нижегородская, 71;Домовая церковь, пристроенная в нач. XX. к городской богадельне (1889-1890, арх. М. П. Кнопф) архитектором С. М. Жаровым. В 1919 закрыта, превращена в жилье. С храма была снесена глава, а на основной храмовый объем надстроен третий этаж. В 2003-2004 проведена реконструкция, восстановлена звонница и декор храма. В здании богадельни сейчас размещается торговый центр с магазинами, а в бывшей церкви – салон красоты.;Иконы Божией Матери Казанская;56.141900;40.436700
5315;Церковь Михаила Архангела на Студеной Горе;церковь;;;действ.;Владимирская обл., г. Владимир, ул. Студеная Гора, 1А;Храм трёхпрестольный. Левый придел - Николая Чудотворца, правый - Феодора Освященного.;"Михаила Архангела; Феодора Освященного; Николая Чудотворца";56.124900;40.387100
5326;Церковь Никиты Великомученика;церковь;;нет данных;действ.;Владимирская обл., г. Владимир, ул. Княгининская, 8;Каменная трёхэтажная пятипрестольная церковь, построенная в 1762-1765 на средства купца Семена Лазарева, вместо предшествующих, уходящих корнями в XII в. Первоначально на первом этаже размещался теплый Космодемьянский придел, на втором Иоанно-Предтеченский, на третьем Никитский. В 1849 к храму пристроены дополнительные приделы: на первом этаже Петропавловский (лев). и Никитский (прав). Никитский престол на третьем этаже упразднен. В 1869 сделана новая пристройка, и на втором этаже размещен придел Рождества Богородицы (прав). Закрыта в 1938, занята реставрационными мастерскими. В 2015 возвращена церкви, восстановлен только Никитский престол на втором этаже.;"Никиты Великомученика; Петра и Павла; Рождества Пресвятой Богородицы; Усекновения Главы Иоанна Предтечи; Космы и Дамиана";56.130720;40.397800
19740;"Церковь Николая Чудотворца во ""Владимирском централе""";церковь;1990-е;нет данных;действ.;Владимирская обл., г. Владимир, Большая Нижегородская ул., 67;"Домовая церковь в одном из корпусов СИЗО-2 (печально известного ""Владимирского централа""), устроенная в 1990-х. Внешне выделена главкой.";Николая Чудотворца;56.141210;40.432280
5327;Церковь Николая Чудотворца Галейская;церковь;не позже нач. XVII в.;нет данных;действ.;Владимирская обл., г. Владимир, ул. Николо-Галейская, 26;;"Николая Чудотворца; Трех Святителей Великих";56.122388;40.401043
5328;Церковь Николая Чудотворца Кремлевская;церковь;;нет данных;сохр.;Владимирская обл., г. Владимир, ул. Большая Московская, 66А;;"Николая Чудотворца; Иконы Божией Матери Тихвинская; Симеона Столпника";56.130800;40.411800
5330;Церковь Николая Чудотворца Спасского прихода;церковь;;нет данных;действ.;Владимирская обл., г. Владимир, ул. Спасская, 8;;Николая Чудотворца;56.125550;40.399800
5331;Церковь Положения Ризы Господней на Золотых Воротах;церковь;;;сохр.;Владимирская обл., г. Владимир, ул. Большая Московская;;Положения Ризы Господней;56.126840;40.397120
5329;;;;;;;;;;
5332;Церковь Сретения Иконы Божией Матери Владимирская в Солдатской Слободе;церковь;;2000-е: Филиппов А. Г. – интерьеры, внутренний/внешний декор (росписи);действ.;Владимирская обл., г. Владимир, ул. Ломоносова, 17А;;"Сретения Иконы Божией Матери Владимирская; Иконы Божией Матери Всех Скорбящих Радость; Сретения Господня; Иконы Божией Матери Владимирская";56.126700;40.377700
5333;Церковь Троицы Живоначальной;церковь;;нет данных;действ.;Владимирская обл., г. Владимир, ул. Музейная, 8;;"Троицы Живоначальной; Сергия Радонежского";56.131550;40.408300
5334;Церковь Троицы Живоначальной (старообрядческая);церковь;;;сохр.;Владимирская обл., г. Владимир, ул. Дворянская, 2;;Троицы Живоначальной;56.126390;40.396031
5335;Церковь Успения Пресвятой Богородицы;церковь;;1955-1981: Столетов А. В. – реставрация;действ.;Владимирская обл., г. Владимир, ул. Большая Московская, 106А;;"Успения Пресвятой Богородицы; Анны праведной Зачатия";56.133550;40.422950
27291;Часовня Воскресения Словущего;часовня;2001;2001: Трофимов А. Н.;действ.;Владимирская обл., г. Владимир, ул. Батурина, 8А;Каменная часовня-сень в русском стиле, построенная в 2001 по проекту арх. А. Н. Трофимова на месте алтаря церкви Воскресения Словущего.;Воскресения Словущего;56.135951;40.409506
5336;Часовня Жен Мироносиц;часовня;;нет данных;действ.;Владимирская обл., г. Владимир, ул. Карла Маркса, 17;Кирпичная часовня простой архитектуры с главкой на четырёхскатной кровле, построена у белокаменного креста, поставленного в 2000 на месте прежде существовавшей здесь Мироносицкой церкви.;Жен Мироносиц;56.132120;40.419950
32083;Часовня Иконы Божией Матери Державная при церкви Михаила Архангела;часовня;не позже 2012;нет данных;действ.;Владимирская обл., г. Владимир, ул. Студеная Гора, 1Б;Часовня на первом этаже колокольни, построенной по проекту арх. А. Н. Трофимова в 2002.;"Иконы Божией Матери Державная; Михаила Архангела";56.124986;40.387323
17290;Часовня Иконы Божией Матери Достойно есть (Милующая) при Успенском соборе;часовня;2000;нет данных;действ.;Владимирская обл., г. Владимир, ул. Большая Московская, 56;Часовня в нижнем ярусе соборной колокольни, устроенная в 2000. Четырехъярусная колокольня под шпилем построена в стиле классицизма с элементами неоготики в 1810 вместо высокой шатровой колокольни XVII в.;Иконы Божией Матери Достойно есть (Милующая);56.127700;40.409040
27295;Часовня Луки, архиепископа Крымского, и Иконы Божией Матери Всецарица при Областном онкологическом диспансере;часовня;сер. 2010-х;нет данных;действ.;Владимирская обл., г. Владимир, ул. Каманина, 1;Двухсторонний часовенный столп из желтого кирпича, установленный в сер. 2010-х на территории онкодиспансера.;"Иконы Божией Матери Всецарица; Луки, архиепископа Крымского";56.142323;40.424460
5405;Часовня на Студеной Горе;часовня;;;действ.;Владимирская обл., г. Владимир, ул. Студеная Гора, 1А;;;56.124770;40.386800
29629;Часовня Николая Чудотворца при церкви Николая Чудотворца Галейская;часовня;не позже XIX в.;нет данных;действ.;Владимирская обл., г. Владимир, ул. Николо-Галейская, 26;Надкладезная часовня на склоне холма ниже Николо-Галейской церкви существовала издавна, к кон. XIX в. представляла собой кубическую деревянную постройку под четырёхскатной крышей, увенчанной маленькой главкой. В советское время сломана. Новая деревянная брусовая часовня, также надкладезная, восьмерик под восьмигранным шатром, сооружена в 2010. Поставлена несколько выше прежнего места, близ алтаря Николо-Галейской церкви.;Николая Чудотворца;56.122343;40.401577
17140;Часовня Сергия Радонежского в Солдатской Слободе;часовня;2004;нет данных;действ.;Владимирская обл., г. Владимир, ул. Ломоносова, 17;Деревянная церковь, совмещенная с воскресной школой, служит крестильным храмом при церкви Сретения иконы Божией Матери Владимирская. Построена в 2004-2005 при первом настоятеле возрожденного Сретенского храма о. Маркелле. Расположена в нескольких метрах к западу от Сретенского храма. В 2018 обращена в часовню, главки сняты, иконостас разобран для передачи в воссоздаваемую церковь Успения в Военном городке.;Сергия Радонежского;56.126690;40.377340
14800;Часовня Спасского прихода;часовня;1998;нет данных;действ.;Владимирская обл., г. Владимир, ул. Спасская, 8;Одноглавая часовня-столп в память 2000-летия христианства. Возведена в 1998 на дворе Спасской церкви тщанием прихожан и настоятеля, освящена 6 нояб. того же года.;;56.125710;40.399720
10610;Церковь Воскресения Словущего в Городище;церковь;не позже XVI в.;нет данных;сохр.;Владимирская обл., Юрьев-Польский р-н, с. Городище;Крупная церковь типа восьмерик на четверике, построенная в 1804 в формах переходных от барокко к классицизму, с трапезной и многоярусной колокольней. Приделы в трапезной Казанский и Никольский. Сломана в 1960-х, уцелела только колокольня.;"Воскресения Словущего; Николая Чудотворца; Иконы Божией Матери Казанская";56.596400;39.708300
19169;;;;;;;;;;
33213;;;;;;;;;;
6196;;;;;;;;;;
6197;Собор Иконы Божией Матери Знамение в Знаменском Красногривском монастыре;церковь;не позже XVII в.;нет данных;действ.;Владимирская обл., г. Гороховец, Знаменский участок;Кирпичный храм в духе суздальской архитектуры кон. XVII в., построенный на средства купца С. Н. Ершова в 1670-1679. Одноглавый бесстолпный четверик с северным приделом Иоанна Богослова и шатровой колокольней у юго-западного угла. Закрыт не позже 1930-х, использовался в хозяйственных целях. Вновь открыт в 1994, ремонтируется.;"Иконы Божией Матери Знамение; Иоанна Богослова";56.212700;42.675800
6185;;;;;;;;;;
6186;;;;;;;;;;
6187;Церковь Иоанна Лествичника в Никольском Гороховецком монастыре;церковь;1710;нет данных;действ.;Владимирская обл., г. Гороховец, ул. Пролетарская, 12;Двухэтажный одноглавый храм с трапезной, построенный в 1710-1716 на средства купца И. А. Ширяева к северо-востоку от собора. С запада к церкви примыкает корпус келий. Закрыта не позже 1930-х, занята под жилье. В 1993 возвращена верующим, отреставрирована.;Иоанна Лествичника;56.204750;42.673600
6921;;;;;;;;;;
6189;Сретенский Гороховецкий женский монастырь;монастырь;1658;2015: Колесников А. И. – реставрация (колокольня);действ.;Владимирская обл., г. Гороховец, ул. Советская, 5;Женский монастырь, основанный в центре города в 1658. Помимо храмов уцелел корпус келий кон. XVII в. с надвратной колокольней. Закрыт в 1764, обращен в приход, с 1870 приписан к Благовещенскому собору. Вновь открыт в 2001 как женский монастырь.;;56.207000;42.680000
6190;Собор Сретения Иконы Божией Матери Владимирская в Сретенском Гороховецком монастыре;церковь;3-я четв. XVII в.;нет данных;действ.;Владимирская обл., г. Гороховец, ул. Советская, 5;Кирпичный монастырский собор, построен в 1689 на средства купца С. Н. Ершова. Двусветный пятиглавый четверик с трапезной, выстроенный в духе нижегородского зодчества кон. XVII в. Закрыт не позже 1930-х. В 1980-х отреставрирован, возвращен верующим в 2001.;Сретения Иконы Божией Матери Владимирская;56.206900;42.679900
6191;Церковь Сергия Радонежского в Сретенском Гороховецком монастыре;церковь;3-я четв. XVII в.;2010-е: Канаев М. Б. – реставрация;действ.;Владимирская обл., г. Гороховец, ул. Советская, 5;Зимняя церковь, выстроенная в кон. XVII в. к востоку от собора. Одноглавый четверик с трапезной, перекрытый двускатными кровлями. Закрыта не позже 1930-х, в 2001 возвращена верующим.;Сергия Радонежского;56.206900;42.680700
3530;Собор Благовещения Пресвятой Богородицы в Гороховце;церковь;не позже XVI в.;2010-е: Канаев М. Б. – реставрация;действ.;Владимирская обл., г. Гороховец, Школьный пер.;Кирпичный четырехстолпный пятиглавый трехапсидный храм с боковыми крыльцами и отдельно стоящей столпообразной шатровой колокольней. Пример архаизирующего направления в зодчестве кон. XVII в. Сооружен на средства купца С. Н. Ершова в 1700. Придел Макария Желтоводского устроен в 1864. Закрыт не позже 1930-х. Передан РПЦ в 2000. Поддерживается в порядке, богослужения проводятся 2 раза в год - 7 апр. (престольный праздник) и на Пасху.;"Благовещения Пресвятой Богородицы; Макария Желтоводского";56.206980;42.676200
6194;Церковь Воскресения Христова в Гороховце;церковь;не позже XVI в.;нет данных;действ.;Владимирская обл., г. Гороховец, ул. Советская, 20;Двухэтажный кирпичный храм в духе гороховецкой школы, сооруженный ок. 1687. Пятиглавый четверик с трапезной и колокольней в духе московского барокко. Внизу был Введенский престол, наверху Георгиевский придел. Закрыт не позже 1930-х, сломаны верхние яруса колокольни. Поддерживался в порядке, занят спортивной школой. С 2016 началось восстановление. Богослужения регулярные.;"Воскресения Христова; Георгия Победоносца; Введения Пресвятой Богородицы во Храм";56.205400;42.676400
6193;Церковь Всех Святых в Гороховце (новая);церковь;1841;нет данных;действ.;Владимирская обл., г. Гороховец, старое кладбище;Кирпичный однокупольный храм в псевдорусском стиле с шатровой колокольней. Сооружен в 1912. Закрыт не позже 1930-х, в 1990-х возвращен верующим, отремонтирован.;Всех Святых;56.202450;42.671300
3528;Церковь Иконы Божией Матери Казанская в Красном;церковь;не позже XVI в.;нет данных;действ.;Владимирская обл., г. Гороховец, ул. Московская, 72;Кирпичная церковь, выстроенная в 1708 на средства купца С. Ширяева, с трапезной и шатровой колокольней. Пятиглавое завершение церкви перестроено в 1817. В трапезной Преображенский и Никольский приделы. Не закрывалась.;"Иконы Божией Матери Казанская; Николая Чудотворца; Преображения Господня";56.196800;42.696300
3529;Церковь Усекновения Главы Иоанна Предтечи в Гороховце;церковь;3-я четв. XVII в.;нет данных;действ.;Владимирская обл., г. Гороховец, Школьный пер., 5;Кирпичный зимний храм при Благовещенском соборе. Одноглавый четверик с трапезной и алтарем, перекрытый двускатными кровлями. Выстроен в нач. XVIII в. В трапезной был Пятницкий придел. Закрыт не позже 1930-х. Поддерживается в порядке, занят краеведческим музеем. В 2022 передан РПЦ. Летом в храме по средам читается акафист Пресвятой Богородице.;"Усекновения Главы Иоанна Предтечи; Параскевы (Пятницы) Великомученицы";56.207020;42.675800
6184;Часовня соборная в Гороховце;часовня;не позже XIX в.;нет данных;действ.;Владимирская обл., г. Гороховец, Школьный пер.;Кубическая одноглавая часовня в юго-восточном углу ограды Благовещенского собора, выстроена в 1887. В настоящее время занята выставочным залом. В 2021 отремонтирована, 28 мая 2022 освящена.;;56.206840;42.676750
29647;Часовня Троицы Живоначальной в Гороховце;часовня;2008;нет данных;действ.;Владимирская обл., Гороховецкий р-н, г. Гороховец, ул. Пролетарская;Деревянная рубленая часовня над чтимым источником, построена в 2008 в комплексе с деревянной купальней. Приписана к церкви Всех Святых.;Троицы Живоначальной;56.204706;42.671629
13782;Часовня Николая Чудотворца на базе отдыха Горшиха;часовня;2000-е;нет данных;действ.;Владимирская обл., Кольчугинский р-н, д. Горшиха;"Небольшая деревянная одноглавая часовня эклектичной архитектуры, сооружённая в 2000-х на территории базы отдыха коттеджного типа ""Горшиха"".";Николая Чудотворца;56.357762;39.307880
23198;Часовня в Гостце;часовня;;нет данных;действ.;Владимирская обл., Петушинский р-н, д. Гостец;Кирпичный часовенный столб, судя по архитектуре, относящийся к кон. XIX - нач. ХХ вв. Отремонтирован в 2000-х.;;55.965570;39.076210
28979;Церковь Воздвижения Честного Креста Господня в Григорово;церковь;2-я треть XVII в.;нет данных;сохр.;Владимирская обл., Меленковский р-н, с. Григорово, стрелка ул. Центральная и ул. Новая Линия;Кирпичная церковь в русском эклектичном стиле, выстроенная в 1910-х рядом со старым деревянным Казанским храмом. К четверику основного объёма, венчавшемуся невысоким восьмериком с пятиглавым завершением, примыкали равные ему по ширине пониженная трапезная и прямоугольная апсида с выступающей гранёной частью. Над западным притвором возвышалась колокольня. Строительство было практически завершено к кон. 1915, но сведений об освящении не встречается. Закрыта в 1940, утрачены (вероятно, в войну) верхние ярусы колокольни, кровля обрушилась в 1980-1990-е. В нач. 2010-х начато восстановление, пока ограничившееся только притвором. Сейчас церковь именуется Крестовоздвиженской.;"Воздвижения Честного Креста Господня; Иконы Божией Матери Казанская";55.370732;41.936841
